$GPRMC,233653.750,A,4308.3169,N,07726.2634,W,0.19,302.38,010823,,,A*73
$GPGGA,233654.000,4308.3165,N,07726.2636,W,1,05,2.33,172.0,M,-34.4,M,,*5D
$GPRMC,233654.250,A,4308.3064,N,07726.2656,W,0.11,244.04,010823,,,A*7D
$GPGGA,233654.500,4308.3057,N,07726.2658,W,1,06,1.81,145.4,M,-34.4,M,,*59
$GPRMC,233654.750,A,4308.3054,N,07726.2660,W,0.07,258.29,010823,,,A*7B
$GPGGA,233655.000,4308.3053,N,07726.2661,W,1,06,1.81,144.7,M,-34.4,M,,*51
$GPRMC,233655.250,A,4308.3052,N,07726.2662,W,0.16,333.73,010823,,,A*78
$GPGGA,233655.500,4308.3051,N,07726.2663,W,1,06,1.81,144.2,M,-34.4,M,,*51
$GPRMC,233655.750,A,4308.3050,N,07726.2664,W,0.10,305.44,010823,,,A*7E
$GPGGA,233656.000,4308.3050,N,07726.2664,W,1,06,1.81,143.8,M,-34.4,M,,*5C
$GPRMC,233656.250,A,4308.3050,N,07726.2665,W,0.25,353.88,010823,,,A*7C
$GPGGA,233656.500,4308.3051,N,07726.2665,W,1,06,1.86,143.8,M,-34.4,M,,*5E
$GPRMC,233656.750,A,4308.3052,N,07726.2664,W,0.60,5.49,010823,,,A*76
$GPGGA,233657.000,4308.3053,N,07726.2664,W,1,06,1.87,144.0,M,-34.4,M,,*57
$GPRMC,233657.250,A,4308.3055,N,07726.2664,W,0.82,6.82,010823,,,A*7D
$GPGGA,233657.500,4308.3056,N,07726.2663,W,1,06,1.87,144.0,M,-34.4,M,,*50
$GPRMC,233657.750,A,4308.3057,N,07726.2663,W,1.03,8.58,010823,,,A*7C
$GPGGA,233658.000,4308.3059,N,07726.2662,W,1,06,1.86,143.8,M,-34.4,M,,*5A
$GPRMC,233658.250,A,4308.3061,N,07726.2661,W,1.25,10.42,010823,,,A*47
$GPGGA,233658.500,4308.3063,N,07726.2661,W,1,06,1.87,143.6,M,-34.4,M,,*5A
$GPRMC,233658.750,A,4308.3066,N,07726.2661,W,1.66,4.25,010823,,,A*76
$GPGGA,233659.000,4308.3069,N,07726.2660,W,1,06,1.86,143.5,M,-34.4,M,,*57
$GPRMC,233659.250,A,4308.3072,N,07726.2660,W,2.20,355.05,010823,,,A*72
$GPGGA,233659.500,4308.3076,N,07726.2659,W,1,06,1.86,143.7,M,-34.4,M,,*54
$GPRMC,233659.750,A,4308.3079,N,07726.2659,W,3.31,356.82,010823,,,A*7B
$GPGGA,233700.000,4308.3082,N,07726.2659,W,1,06,1.86,143.6,M,-34.4,M,,*56
$GPRMC,233700.250,A,4308.3086,N,07726.2658,W,4.00,359.13,010823,,,A*70
$GPGGA,233700.500,4308.3089,N,07726.2658,W,1,06,1.87,143.7,M,-34.4,M,,*59
$GPRMC,233700.750,A,4308.3092,N,07726.2659,W,4.32,356.51,010823,,,A*79
$GPGGA,233701.000,4308.3095,N,07726.2659,W,1,06,1.86,143.8,M,-34.4,M,,*5F
$GPRMC,233701.250,A,4308.3098,N,07726.2660,W,4.27,352.96,010823,,,A*76
$GPGGA,233701.500,4308.3102,N,07726.2660,W,1,06,1.87,144.0,M,-34.4,M,,*51
$GPRMC,233701.750,A,4308.3105,N,07726.2660,W,4.92,355.79,010823,,,A*7E
$GPGGA,233702.000,4308.3108,N,07726.2660,W,1,06,1.86,143.9,M,-34.4,M,,*52
$GPRMC,233702.250,A,4308.3110,N,07726.2660,W,4.22,358.56,010823,,,A*77
$GPGGA,233702.500,4308.3112,N,07726.2661,W,1,06,1.86,143.9,M,-34.4,M,,*5D
$GPRMC,233702.750,A,4308.3114,N,07726.2662,W,3.34,351.73,010823,,,A*7A
$GPGGA,233703.000,4308.3115,N,07726.2663,W,1,06,1.87,143.9,M,-34.4,M,,*5D
$GPRMC,233703.250,A,4308.3117,N,07726.2664,W,3.08,349.35,010823,,,A*7F
$GPGGA,233703.500,4308.3118,N,07726.2664,W,1,06,1.87,144.0,M,-34.4,M,,*5C
$GPRMC,233703.750,A,4308.3120,N,07726.2665,W,2.71,354.31,010823,,,A*78
$GPGGA,233704.000,4308.3121,N,07726.2665,W,1,06,1.87,144.0,M,-34.4,M,,*55
$GPRMC,233704.250,A,4308.3122,N,07726.2666,W,2.38,354.51,010823,,,A*70
$GPGGA,233704.500,4308.3124,N,07726.2666,W,1,06,1.86,144.0,M,-34.4,M,,*57
$GPRMC,233704.750,A,4308.3125,N,07726.2667,W,2.38,357.88,010823,,,A*74
$GPGGA,233705.000,4308.3126,N,07726.2667,W,1,06,1.86,144.1,M,-34.4,M,,*51
$GPRMC,233705.250,A,4308.3127,N,07726.2668,W,1.66,0.19,010823,,,A*7C
$GPGGA,233705.500,4308.3126,N,07726.2668,W,1,06,1.86,144.2,M,-34.4,M,,*58
$GPRMC,233705.750,A,4308.3127,N,07726.2669,W,1.04,352.02,010823,,,A*72
$GPGGA,233706.000,4308.3127,N,07726.2670,W,1,06,1.87,144.4,M,-34.4,M,,*51
$GPRMC,233706.250,A,4308.3128,N,07726.2670,W,1.23,354.92,010823,,,A*79
$GPGGA,233706.500,4308.3128,N,07726.2670,W,1,06,1.87,144.6,M,-34.4,M,,*59
$GPRMC,233706.750,A,4308.3128,N,07726.2670,W,1.02,355.42,010823,,,A*73
$GPGGA,233707.000,4308.3129,N,07726.2671,W,1,06,1.87,144.7,M,-34.4,M,,*5C
$GPRMC,233707.250,A,4308.3130,N,07726.2671,W,1.21,353.43,010823,,,A*79
$GPGGA,233707.500,4308.3132,N,07726.2671,W,1,06,1.87,144.8,M,-34.4,M,,*5C
$GPRMC,233707.750,A,4308.3134,N,07726.2672,W,1.51,351.92,010823,,,A*72
$GPGGA,233708.000,4308.3136,N,07726.2672,W,1,06,1.87,144.9,M,-34.4,M,,*50
$GPRMC,233708.250,A,4308.3136,N,07726.2673,W,1.62,349.94,010823,,,A*74
$GPGGA,233708.500,4308.3136,N,07726.2674,W,1,06,1.86,144.8,M,-34.4,M,,*53
$GPRMC,233708.750,A,4308.3137,N,07726.2675,W,1.59,350.64,010823,,,A*79
$GPGGA,233709.000,4308.3138,N,07726.2675,W,1,06,1.87,144.8,M,-34.4,M,,*59
$GPRMC,233709.250,A,4308.3139,N,07726.2676,W,1.66,347.43,010823,,,A*7F
$GPGGA,233709.500,4308.3141,N,07726.2677,W,1,06,1.87,144.9,M,-34.4,M,,*51
$GPRMC,233709.750,A,4308.3142,N,07726.2678,W,1.90,344.73,010823,,,A*71
$GPGGA,233710.000,4308.3143,N,07726.2679,W,1,06,1.81,144.8,M,-34.4,M,,*57
$GPRMC,233710.250,A,4308.3144,N,07726.2680,W,1.89,343.75,010823,,,A*74
$GPGGA,233710.500,4308.3146,N,07726.2680,W,1,06,1.81,144.8,M,-34.4,M,,*51
$GPRMC,233710.750,A,4308.3147,N,07726.2681,W,1.93,343.22,010823,,,A*7A
$GPGGA,233711.000,4308.3148,N,07726.2682,W,1,06,1.81,144.7,M,-34.4,M,,*56
$GPRMC,233711.250,A,4308.3149,N,07726.2682,W,1.92,342.67,010823,,,A*72
$GPGGA,233711.500,4308.3148,N,07726.2683,W,1,06,1.81,144.7,M,-34.4,M,,*52
$GPRMC,233711.750,A,4308.3147,N,07726.2684,W,1.51,339.71,010823,,,A*7B
$GPGGA,233712.000,4308.3146,N,07726.2684,W,1,06,1.81,144.8,M,-34.4,M,,*52
$GPRMC,233712.250,A,4308.3145,N,07726.2683,W,1.12,346.97,010823,,,A*7F
$GPGGA,233712.500,4308.3144,N,07726.2681,W,1,06,1.87,145.0,M,-34.4,M,,*5F
$GPRMC,233712.750,A,4308.3144,N,07726.2676,W,0.90,30.89,010823,,,A*47
$GPGGA,233713.000,4308.3144,N,07726.2674,W,1,06,1.81,145.0,M,-34.4,M,,*57
$GPRMC,233713.250,A,4308.3144,N,07726.2671,W,1.15,55.78,010823,,,A*45
$GPGGA,233713.500,4308.3145,N,07726.2666,W,1,06,1.81,145.1,M,-34.4,M,,*51
$GPRMC,233713.750,A,4308.3145,N,07726.2661,W,1.79,68.75,010823,,,A*49
$GPGGA,233714.000,4308.3145,N,07726.2659,W,1,06,1.81,145.1,M,-34.4,M,,*5F
$GPRMC,233714.250,A,4308.3142,N,07726.2656,W,1.98,81.65,010823,,,A*41
$GPGGA,233714.500,4308.3142,N,07726.2653,W,1,06,1.81,145.3,M,-34.4,M,,*55
$GPRMC,233714.750,A,4308.3142,N,07726.2648,W,3.56,90.19,010823,,,A*40
$GPGGA,233715.000,4308.3142,N,07726.2642,W,1,06,1.81,145.4,M,-34.4,M,,*56
$GPRMC,233715.250,A,4308.3143,N,07726.2636,W,5.32,87.49,010823,,,A*4B
$GPGGA,233715.500,4308.3142,N,07726.2630,W,1,06,1.86,145.5,M,-34.4,M,,*50
$GPRMC,233715.750,A,4308.3143,N,07726.2624,W,6.15,89.36,010823,,,A*4D
$GPGGA,233716.000,4308.3143,N,07726.2618,W,1,06,1.87,145.5,M,-34.4,M,,*5C
$GPRMC,233716.250,A,4308.3144,N,07726.2611,W,6.30,86.78,010823,,,A*48
$GPGGA,233716.500,4308.3145,N,07726.2604,W,1,06,1.87,145.6,M,-34.4,M,,*51
$GPRMC,233716.750,A,4308.3145,N,07726.2597,W,7.22,87.89,010823,,,A*4C
$GPGGA,233717.000,4308.3145,N,07726.2589,W,1,06,1.87,145.5,M,-34.4,M,,*50
$GPRMC,233717.250,A,4308.3146,N,07726.2580,W,8.31,86.51,010823,,,A*44
$GPGGA,233717.500,4308.3147,N,07726.2571,W,1,06,1.86,145.6,M,-34.4,M,,*52
$GPRMC,233717.750,A,4308.3148,N,07726.2561,W,9.07,87.51,010823,,,A*45
$GPGGA,233718.000,4308.3148,N,07726.2552,W,1,06,1.86,145.7,M,-34.4,M,,*57
$GPRMC,233718.250,A,4308.3148,N,07726.2543,W,9.63,89.55,010823,,,A*47
$GPGGA,233718.500,4308.3147,N,07726.2533,W,1,06,1.86,145.7,M,-34.4,M,,*5A
$GPRMC,233718.750,A,4308.3148,N,07726.2522,W,10.42,89.95,010823,,,A*72
$GPGGA,233719.000,4308.3147,N,07726.2510,W,1,06,1.81,145.7,M,-34.4,M,,*58
$GPRMC,233719.250,A,4308.3146,N,07726.2498,W,11.06,89.62,010823,,,A*71
$GPGGA,233719.500,4308.3146,N,07726.2485,W,1,06,1.87,145.7,M,-34.4,M,,*57
$GPRMC,233719.750,A,4308.3146,N,07726.2472,W,11.78,88.34,010823,,,A*7B
$GPGGA,233720.000,4308.3146,N,07726.2460,W,1,06,1.81,145.7,M,-34.4,M,,*55
$GPRMC,233720.250,A,4308.3146,N,07726.2447,W,12.22,88.27,010823,,,A*7C
$GPGGA,233720.500,4308.3146,N,07726.2435,W,1,06,1.87,145.6,M,-34.4,M,,*57
$GPRMC,233720.750,A,4308.3146,N,07726.2422,W,12.65,89.44,010823,,,A*7D
$GPGGA,233721.000,4308.3146,N,07726.2410,W,1,06,1.86,145.5,M,-34.4,M,,*56
$GPRMC,233721.250,A,4308.3146,N,07726.2398,W,13.04,90.44,010823,,,A*71
$GPGGA,233721.500,4308.3145,N,07726.2386,W,1,06,1.87,145.5,M,-34.4,M,,*59
$GPRMC,233721.750,A,4308.3145,N,07726.2374,W,13.39,91.39,010823,,,A*70
$GPGGA,233722.000,4308.3145,N,07726.2361,W,1,06,1.87,145.5,M,-34.4,M,,*56
$GPRMC,233722.250,A,4308.3145,N,07726.2348,W,13.60,91.86,010823,,,A*71
$GPGGA,233722.500,4308.3145,N,07726.2335,W,1,06,1.87,145.5,M,-34.4,M,,*52
$GPRMC,233722.750,A,4308.3145,N,07726.2322,W,13.85,92.20,010823,,,A*7C
$GPGGA,233723.000,4308.3144,N,07726.2309,W,1,06,1.81,145.6,M,-34.4,M,,*5D
$GPRMC,233723.250,A,4308.3144,N,07726.2295,W,14.35,93.02,010823,,,A*79
$GPGGA,233723.500,4308.3144,N,07726.2281,W,1,06,1.87,145.6,M,-34.4,M,,*5F
$GPRMC,233723.750,A,4308.3144,N,07726.2266,W,14.76,92.66,010823,,,A*74
$GPGGA,233724.000,4308.3143,N,07726.2252,W,1,06,1.81,145.6,M,-34.4,M,,*52
$GPRMC,233724.250,A,4308.3143,N,07726.2237,W,15.03,92.58,010823,,,A*7B
$GPGGA,233724.500,4308.3143,N,07726.2222,W,1,06,1.87,145.5,M,-34.4,M,,*55
$GPRMC,233724.750,A,4308.3142,N,07726.2208,W,15.15,92.49,010823,,,A*74
$GPGGA,233725.000,4308.3142,N,07726.2192,W,1,06,1.87,145.4,M,-34.4,M,,*59
$GPRMC,233725.250,A,4308.3142,N,07726.2176,W,15.46,91.59,010823,,,A*7E
$GPGGA,233725.500,4308.3142,N,07726.2161,W,1,06,1.87,145.3,M,-34.4,M,,*57
$GPRMC,233725.750,A,4308.3143,N,07726.2144,W,15.85,90.78,010823,,,A*76
$GPGGA,233726.000,4308.3143,N,07726.2128,W,1,06,1.87,145.2,M,-34.4,M,,*5C
$GPRMC,233726.250,A,4308.3144,N,07726.2112,W,16.18,89.93,010823,,,A*7E
$GPGGA,233726.500,4308.3144,N,07726.2096,W,1,06,1.87,145.2,M,-34.4,M,,*5A
$GPRMC,233726.750,A,4308.3143,N,07726.2075,W,16.28,90.07,010823,,,A*7A
$GPGGA,233727.000,4308.3142,N,07726.2056,W,1,06,1.81,145.2,M,-34.4,M,,*52
$GPRMC,233727.250,A,4308.3142,N,07726.2038,W,16.53,90.47,010823,,,A*7E
$GPGGA,233727.500,4308.3142,N,07726.2022,W,1,06,1.86,145.2,M,-34.4,M,,*53
$GPRMC,233727.750,A,4308.3143,N,07726.2006,W,16.33,90.80,010823,,,A*7A
$GPGGA,233728.000,4308.3143,N,07726.1990,W,1,06,1.87,145.2,M,-34.4,M,,*5A
$GPRMC,233728.250,A,4308.3143,N,07726.1974,W,16.28,90.86,010823,,,A*73
$GPGGA,233728.500,4308.3143,N,07726.1957,W,1,06,1.87,145.2,M,-34.4,M,,*54
$GPRMC,233728.750,A,4308.3143,N,07726.1940,W,16.36,90.92,010823,,,A*7B
$GPGGA,233729.000,4308.3142,N,07726.1924,W,1,06,1.86,145.2,M,-34.4,M,,*54
$GPRMC,233729.250,A,4308.3143,N,07726.1907,W,16.58,91.68,010823,,,A*70
$GPGGA,233729.500,4308.3143,N,07726.1890,W,1,06,1.86,145.1,M,-34.4,M,,*5D
$GPRMC,233729.750,A,4308.3143,N,07726.1873,W,16.83,91.99,010823,,,A*7F
$GPGGA,233730.000,4308.3143,N,07726.1857,W,1,06,1.87,145.0,M,-34.4,M,,*5B
$GPRMC,233730.250,A,4308.3143,N,07726.1840,W,16.81,91.48,010823,,,A*7C
$GPGGA,233730.500,4308.3143,N,07726.1824,W,1,06,1.87,145.0,M,-34.4,M,,*5A
$GPRMC,233730.750,A,4308.3143,N,07726.1808,W,16.77,91.45,010823,,,A*71
$GPGGA,233731.000,4308.3143,N,07726.1792,W,1,06,1.86,144.9,M,-34.4,M,,*55
$GPRMC,233731.250,A,4308.3143,N,07726.1776,W,17.00,91.35,010823,,,A*75
$GPGGA,233731.500,4308.3143,N,07726.1759,W,1,06,1.87,144.8,M,-34.4,M,,*57
$GPRMC,233731.750,A,4308.3143,N,07726.1743,W,17.26,90.81,010823,,,A*7C
$GPGGA,233732.000,4308.3143,N,07726.1726,W,1,06,1.87,144.7,M,-34.4,M,,*56
$GPRMC,233732.250,A,4308.3143,N,07726.1709,W,17.32,90.08,010823,,,A*70
$GPGGA,233732.500,4308.3143,N,07726.1693,W,1,06,1.87,144.7,M,-34.4,M,,*5C
$GPRMC,233732.750,A,4308.3142,N,07726.1677,W,17.26,90.02,010823,,,A*73
$GPGGA,233733.000,4308.3142,N,07726.1660,W,1,06,1.87,144.6,M,-34.4,M,,*54
$GPRMC,233733.250,A,4308.3142,N,07726.1644,W,17.22,89.72,010823,,,A*7C
$GPGGA,233733.500,4308.3142,N,07726.1628,W,1,06,1.87,144.5,M,-34.4,M,,*5E
$GPRMC,233733.750,A,4308.3143,N,07726.1611,W,17.17,88.53,010823,,,A*7C
$GPGGA,233734.000,4308.3143,N,07726.1595,W,1,06,1.81,144.5,M,-34.4,M,,*5E
$GPRMC,233734.250,A,4308.3144,N,07726.1579,W,17.17,87.40,010823,,,A*79
$GPGGA,233734.500,4308.3146,N,07726.1564,W,1,06,1.87,144.6,M,-34.4,M,,*55
$GPRMC,233734.750,A,4308.3147,N,07726.1549,W,16.95,85.66,010823,,,A*71
$GPGGA,233735.000,4308.3149,N,07726.1534,W,1,06,1.81,144.7,M,-34.4,M,,*5C
$GPRMC,233735.250,A,4308.3150,N,07726.1520,W,16.71,83.72,010823,,,A*75
$GPGGA,233735.500,4308.3153,N,07726.1504,W,1,06,1.87,144.7,M,-34.4,M,,*57
$GPRMC,233735.750,A,4308.3156,N,07726.1490,W,16.62,80.08,010823,,,A*70
$GPGGA,233736.000,4308.3158,N,07726.1474,W,1,06,1.81,144.7,M,-34.4,M,,*5A
$GPRMC,233736.250,A,4308.3161,N,07726.1460,W,16.48,76.53,010823,,,A*72
$GPGGA,233736.500,4308.3165,N,07726.1444,W,1,06,1.87,144.6,M,-34.4,M,,*55
$GPRMC,233736.750,A,4308.3168,N,07726.1429,W,16.48,71.81,010823,,,A*7B
$GPGGA,233737.000,4308.3172,N,07726.1415,W,1,06,1.87,144.6,M,-34.4,M,,*53
$GPRMC,233737.250,A,4308.3176,N,07726.1400,W,16.49,68.86,010823,,,A*75
$GPGGA,233737.500,4308.3181,N,07726.1386,W,1,06,1.81,144.4,M,-34.4,M,,*53
$GPRMC,233737.750,A,4308.3187,N,07726.1373,W,16.09,63.05,010823,,,A*79
$GPGGA,233738.000,4308.3192,N,07726.1359,W,1,06,1.81,144.4,M,-34.4,M,,*59
$GPRMC,233738.250,A,4308.3198,N,07726.1347,W,15.99,59.39,010823,,,A*76
$GPGGA,233738.500,4308.3204,N,07726.1334,W,1,06,1.87,144.3,M,-34.4,M,,*5A
$GPRMC,233738.750,A,4308.3211,N,07726.1321,W,15.88,56.48,010823,,,A*78
$GPGGA,233739.000,4308.3219,N,07726.1307,W,1,06,1.81,144.3,M,-34.4,M,,*54
$GPRMC,233739.250,A,4308.3227,N,07726.1294,W,16.37,53.49,010823,,,A*75
$GPGGA,233739.500,4308.3237,N,07726.1282,W,1,06,1.81,144.2,M,-34.4,M,,*50
$GPRMC,233739.750,A,4308.3247,N,07726.1272,W,16.67,45.74,010823,,,A*72
$GPGGA,233740.000,4308.3258,N,07726.1261,W,1,06,1.81,144.1,M,-34.4,M,,*5C
$GPRMC,233740.250,A,4308.3267,N,07726.1251,W,16.96,40.61,010823,,,A*75
$GPGGA,233740.500,4308.3277,N,07726.1240,W,1,06,1.81,144.1,M,-34.4,M,,*57
$GPRMC,233740.750,A,4308.3287,N,07726.1230,W,17.09,38.49,010823,,,A*7B
$GPGGA,233741.000,4308.3298,N,07726.1220,W,1,06,1.81,144.1,M,-34.4,M,,*54
$GPRMC,233741.250,A,4308.3310,N,07726.1213,W,17.40,31.62,010823,,,A*7C
$GPGGA,233741.500,4308.3321,N,07726.1206,W,1,06,1.87,144.1,M,-34.4,M,,*50
$GPRMC,233741.750,A,4308.3333,N,07726.1199,W,17.73,25.94,010823,,,A*75
$GPGGA,233742.000,4308.3345,N,07726.1192,W,1,06,1.81,144.1,M,-34.4,M,,*5C
$GPRMC,233742.250,A,4308.3359,N,07726.1186,W,18.43,22.17,010823,,,A*71
$GPGGA,233742.500,4308.3372,N,07726.1181,W,1,06,1.81,144.1,M,-34.4,M,,*5F
$GPRMC,233742.750,A,4308.3386,N,07726.1177,W,18.52,18.74,010823,,,A*74
$GPGGA,233743.000,4308.3399,N,07726.1173,W,1,06,1.81,144.0,M,-34.4,M,,*52
$GPRMC,233743.250,A,4308.3413,N,07726.1170,W,18.66,15.63,010823,,,A*70
$GPGGA,233743.500,4308.3425,N,07726.1167,W,1,06,1.86,143.9,M,-34.4,M,,*5B
$GPRMC,233743.750,A,4308.3438,N,07726.1164,W,18.77,12.33,010823,,,A*7B
$GPGGA,233744.000,4308.3451,N,07726.1162,W,1,06,1.87,144.1,M,-34.4,M,,*51
$GPRMC,233744.250,A,4308.3464,N,07726.1159,W,18.82,9.56,010823,,,A*4D
$GPGGA,233744.500,4308.3478,N,07726.1158,W,1,06,1.87,144.2,M,-34.4,M,,*55
$GPRMC,233744.750,A,4308.3492,N,07726.1156,W,19.17,6.58,010823,,,A*42
$GPGGA,233745.000,4308.3505,N,07726.1154,W,1,06,1.87,144.2,M,-34.4,M,,*56
$GPRMC,233745.250,A,4308.3520,N,07726.1153,W,19.27,5.16,010823,,,A*41
$GPGGA,233745.500,4308.3533,N,07726.1151,W,1,06,1.87,144.3,M,-34.4,M,,*52
$GPRMC,233745.750,A,4308.3546,N,07726.1150,W,19.24,4.24,010823,,,A*44
$GPGGA,233746.000,4308.3560,N,07726.1149,W,1,06,1.87,144.4,M,-34.4,M,,*5C
$GPRMC,233746.250,A,4308.3574,N,07726.1148,W,19.47,3.78,010823,,,A*41
$GPGGA,233746.500,4308.3589,N,07726.1147,W,1,06,1.87,144.4,M,-34.4,M,,*50
$GPRMC,233746.750,A,4308.3603,N,07726.1146,W,19.69,3.32,010823,,,A*4B
$GPGGA,233747.000,4308.3617,N,07726.1146,W,1,06,1.87,144.3,M,-34.4,M,,*56
$GPRMC,233747.250,A,4308.3630,N,07726.1145,W,19.71,3.15,010823,,,A*40
$GPGGA,233747.500,4308.3644,N,07726.1145,W,1,06,1.87,144.3,M,-34.4,M,,*56
$GPRMC,233747.750,A,4308.3658,N,07726.1145,W,19.76,2.94,010823,,,A*44
$GPGGA,233748.000,4308.3672,N,07726.1145,W,1,06,1.87,144.2,M,-34.4,M,,*58
$GPRMC,233748.250,A,4308.3686,N,07726.1145,W,19.77,2.82,010823,,,A*4B
$GPGGA,233748.500,4308.3699,N,07726.1145,W,1,06,1.87,144.0,M,-34.4,M,,*5A
$GPRMC,233748.750,A,4308.3713,N,07726.1145,W,19.80,2.17,010823,,,A*47
$GPGGA,233749.000,4308.3727,N,07726.1145,W,1,06,1.87,143.9,M,-34.4,M,,*54
$GPRMC,233749.250,A,4308.3742,N,07726.1145,W,20.05,1.93,010823,,,A*4F
$GPGGA,233749.500,4308.3757,N,07726.1144,W,1,06,1.87,143.8,M,-34.4,M,,*56
$GPRMC,233749.750,A,4308.3771,N,07726.1145,W,20.31,1.84,010823,,,A*4B
$GPGGA,233750.000,4308.3785,N,07726.1145,W,1,06,1.87,143.8,M,-34.4,M,,*55
$GPRMC,233750.250,A,4308.3800,N,07726.1144,W,20.34,2.21,010823,,,A*47
$GPGGA,233750.500,4308.3814,N,07726.1144,W,1,06,1.87,143.7,M,-34.4,M,,*59
$GPRMC,233750.750,A,4308.3828,N,07726.1144,W,20.28,1.98,010823,,,A*44
$GPGGA,233751.000,4308.3842,N,07726.1143,W,1,06,1.86,143.6,M,-34.4,M,,*59
$GPRMC,233751.250,A,4308.3855,N,07726.1144,W,20.06,2.21,010823,,,A*47
$GPGGA,233751.500,4308.3868,N,07726.1144,W,1,06,1.87,143.5,M,-34.4,M,,*51
$GPRMC,233751.750,A,4308.3881,N,07726.1144,W,19.64,2.13,010823,,,A*44
$GPGGA,233752.000,4308.3895,N,07726.1144,W,1,06,1.87,143.4,M,-34.4,M,,*54
$GPRMC,233752.250,A,4308.3908,N,07726.1144,W,19.28,1.79,010823,,,A*45
$GPGGA,233752.500,4308.3920,N,07726.1144,W,1,06,1.87,143.3,M,-34.4,M,,*59
$GPRMC,233752.750,A,4308.3933,N,07726.1144,W,18.89,1.56,010823,,,A*4F
$GPGGA,233753.000,4308.3946,N,07726.1143,W,1,06,1.87,143.2,M,-34.4,M,,*5B
$GPRMC,233753.250,A,4308.3958,N,07726.1143,W,18.39,1.95,010823,,,A*45
$GPGGA,233753.500,4308.3970,N,07726.1143,W,1,06,1.87,143.1,M,-34.4,M,,*58
$GPRMC,233753.750,A,4308.3982,N,07726.1143,W,17.98,2.06,010823,,,A*4A
$GPGGA,233754.000,4308.3994,N,07726.1143,W,1,06,1.87,143.1,M,-34.4,M,,*50
$GPRMC,233754.250,A,4308.4007,N,07726.1141,W,17.89,2.00,010823,,,A*4F
$GPGGA,233754.500,4308.4021,N,07726.1140,W,1,06,1.86,143.0,M,-34.4,M,,*56
$GPRMC,233754.750,A,4308.4034,N,07726.1138,W,17.86,2.45,010823,,,A*4A
$GPGGA,233755.000,4308.4046,N,07726.1138,W,1,06,1.87,142.9,M,-34.4,M,,*55
$GPRMC,233755.250,A,4308.4059,N,07726.1137,W,17.81,1.85,010823,,,A*42
$GPGGA,233755.500,4308.4072,N,07726.1137,W,1,06,1.87,142.9,M,-34.4,M,,*58
$GPRMC,233755.750,A,4308.4084,N,07726.1137,W,17.37,0.85,010823,,,A*4B
$GPGGA,233756.000,4308.4096,N,07726.1137,W,1,06,1.87,142.8,M,-34.4,M,,*55
$GPRMC,233756.250,A,4308.4112,N,07726.1137,W,17.06,359.56,010823,,,A*40
$GPGGA,233756.500,4308.4125,N,07726.1137,W,1,06,1.87,142.9,M,-34.4,M,,*58
$GPRMC,233756.750,A,4308.4139,N,07726.1138,W,16.61,358.24,010823,,,A*47
$GPGGA,233757.000,4308.4153,N,07726.1138,W,1,06,1.87,142.9,M,-34.4,M,,*52
$GPRMC,233757.250,A,4308.4165,N,07726.1138,W,16.34,357.75,010823,,,A*41
$GPGGA,233757.500,4308.4177,N,07726.1138,W,1,06,1.87,142.9,M,-34.4,M,,*51
$GPRMC,233757.750,A,4308.4189,N,07726.1138,W,15.96,358.74,010823,,,A*43
$GPGGA,233758.000,4308.4200,N,07726.1140,W,1,06,1.87,142.8,M,-34.4,M,,*56
$GPRMC,233758.250,A,4308.4212,N,07726.1141,W,15.83,359.72,010823,,,A*45
$GPGGA,233758.500,4308.4223,N,07726.1143,W,1,06,1.87,142.7,M,-34.4,M,,*5E
$GPRMC,233758.750,A,4308.4234,N,07726.1143,W,15.45,1.39,010823,,,A*4D
$GPGGA,233759.000,4308.4244,N,07726.1144,W,1,06,1.87,142.7,M,-34.4,M,,*5C
$GPRMC,233759.250,A,4308.4254,N,07726.1143,W,15.07,3.61,010823,,,A*46
$GPGGA,233759.500,4308.4264,N,07726.1143,W,1,06,1.87,142.7,M,-34.4,M,,*5C
$GPRMC,233759.750,A,4308.4274,N,07726.1141,W,14.48,6.48,010823,,,A*47
$GPGGA,233800.000,4308.4283,N,07726.1140,W,1,06,1.87,142.8,M,-34.4,M,,*5F
$GPRMC,233800.250,A,4308.4292,N,07726.1138,W,13.70,7.97,010823,,,A*48
$GPGGA,233800.500,4308.4300,N,07726.1137,W,1,06,1.87,142.8,M,-34.4,M,,*50
$GPRMC,233800.750,A,4308.4307,N,07726.1135,W,12.55,10.31,010823,,,A*71
$GPGGA,233801.000,4308.4315,N,07726.1133,W,1,06,1.87,142.8,M,-34.4,M,,*54
$GPRMC,233801.250,A,4308.4321,N,07726.1132,W,11.75,11.23,010823,,,A*75
$GPGGA,233801.500,4308.4327,N,07726.1130,W,1,06,1.87,142.8,M,-34.4,M,,*53
$GPRMC,233801.750,A,4308.4333,N,07726.1128,W,10.74,13.00,010823,,,A*7B
$GPGGA,233802.000,4308.4338,N,07726.1127,W,1,06,1.87,142.8,M,-34.4,M,,*5D
$GPRMC,233802.250,A,4308.4341,N,07726.1125,W,9.68,17.43,010823,,,A*43
$GPGGA,233802.500,4308.4344,N,07726.1123,W,1,06,1.87,142.8,M,-34.4,M,,*57
$GPRMC,233802.750,A,4308.4345,N,07726.1123,W,8.39,18.83,010823,,,A*42
$GPGGA,233803.000,4308.4343,N,07726.1126,W,1,06,1.81,142.8,M,-34.4,M,,*57
$GPRMC,233803.250,A,4308.4340,N,07726.1129,W,5.17,14.35,010823,,,A*49
$GPGGA,233803.500,4308.4341,N,07726.1130,W,1,06,1.87,142.6,M,-34.4,M,,*5F
$GPRMC,233803.750,A,4308.4342,N,07726.1128,W,4.54,22.24,010823,,,A*4C
$GPGGA,233804.000,4308.4340,N,07726.1123,W,1,06,1.86,142.8,M,-34.4,M,,*51
$GPRMC,233804.250,A,4308.4342,N,07726.1121,W,4.37,27.50,010823,,,A*44
$GPGGA,233804.500,4308.4344,N,07726.1120,W,1,06,1.87,142.8,M,-34.4,M,,*52
$GPRMC,233804.750,A,4308.4346,N,07726.1117,W,4.41,32.78,010823,,,A*4F
$GPGGA,233805.000,4308.4348,N,07726.1115,W,1,06,1.81,142.7,M,-34.4,M,,*55
$GPRMC,233805.250,A,4308.4350,N,07726.1112,W,4.53,41.57,010823,,,A*43
$GPGGA,233805.500,4308.4352,N,07726.1109,W,1,06,1.86,142.7,M,-34.4,M,,*51
$GPRMC,233805.750,A,4308.4354,N,07726.1105,W,5.08,52.73,010823,,,A*4F
$GPGGA,233806.000,4308.4355,N,07726.1101,W,1,06,1.87,142.6,M,-34.4,M,,*58
$GPRMC,233806.250,A,4308.4357,N,07726.1097,W,5.78,61.89,010823,,,A*42
$GPGGA,233806.500,4308.4358,N,07726.1091,W,1,06,1.86,142.7,M,-34.4,M,,*58
$GPRMC,233806.750,A,4308.4360,N,07726.1085,W,6.42,72.26,010823,,,A*4D
$GPGGA,233807.000,4308.4362,N,07726.1077,W,1,06,1.81,142.7,M,-34.4,M,,*5A
$GPRMC,233807.250,A,4308.4365,N,07726.1068,W,7.89,74.91,010823,,,A*43
$GPGGA,233807.500,4308.4366,N,07726.1059,W,1,06,1.87,142.7,M,-34.4,M,,*51
$GPRMC,233807.750,A,4308.4367,N,07726.1050,W,9.31,80.05,010823,,,A*44
$GPGGA,233808.000,4308.4368,N,07726.1039,W,1,06,1.81,142.8,M,-34.4,M,,*5A
$GPRMC,233808.250,A,4308.4370,N,07726.1028,W,10.32,82.56,010823,,,A*78
$GPGGA,233808.500,4308.4371,N,07726.1016,W,1,06,1.87,142.8,M,-34.4,M,,*5C
$GPRMC,233808.750,A,4308.4374,N,07726.1004,W,11.55,83.26,010823,,,A*71
$GPGGA,233809.000,4308.4375,N,07726.0991,W,1,06,1.81,142.8,M,-34.4,M,,*5D
$GPRMC,233809.250,A,4308.4377,N,07726.0978,W,12.50,83.35,010823,,,A*71
$GPGGA,233809.500,4308.4379,N,07726.0965,W,1,06,1.87,142.9,M,-34.4,M,,*58
$GPRMC,233809.750,A,4308.4381,N,07726.0951,W,13.56,82.94,010823,,,A*7B
$GPGGA,233810.000,4308.4383,N,07726.0937,W,1,06,1.81,142.9,M,-34.4,M,,*51
$GPRMC,233810.250,A,4308.4386,N,07726.0922,W,14.50,80.99,010823,,,A*7B
$GPGGA,233810.500,4308.4388,N,07726.0907,W,1,06,1.87,143.0,M,-34.4,M,,*52
$GPRMC,233810.750,A,4308.4391,N,07726.0892,W,15.13,79.67,010823,,,A*73
$GPGGA,233811.000,4308.4394,N,07726.0877,W,1,06,1.81,143.1,M,-34.4,M,,*5A
$GPRMC,233811.250,A,4308.4397,N,07726.0862,W,15.64,78.57,010823,,,A*7C
$GPGGA,233811.500,4308.4401,N,07726.0846,W,1,06,1.87,143.2,M,-34.4,M,,*53
$GPRMC,233811.750,A,4308.4405,N,07726.0831,W,16.18,76.96,010823,,,A*78
$GPGGA,233812.000,4308.4408,N,07726.0816,W,1,06,1.87,143.3,M,-34.4,M,,*58
$GPRMC,233812.250,A,4308.4412,N,07726.0801,W,16.64,76.40,010823,,,A*7B
$GPGGA,233812.500,4308.4416,N,07726.0785,W,1,06,1.87,143.4,M,-34.4,M,,*50
$GPRMC,233812.750,A,4308.4419,N,07726.0769,W,16.91,76.49,010823,,,A*77
$GPGGA,233813.000,4308.4422,N,07726.0753,W,1,06,1.87,143.6,M,-34.4,M,,*5A
$GPRMC,233813.250,A,4308.4425,N,07726.0737,W,17.20,76.00,010823,,,A*71
$GPGGA,233813.500,4308.4427,N,07726.0721,W,1,06,1.87,143.6,M,-34.4,M,,*5F
$GPRMC,233813.750,A,4308.4430,N,07726.0705,W,17.61,75.96,010823,,,A*78
$GPGGA,233814.000,4308.4433,N,07726.0688,W,1,06,1.81,143.6,M,-34.4,M,,*5C
$GPRMC,233814.250,A,4308.4437,N,07726.0671,W,18.10,74.97,010823,,,A*76
$GPGGA,233814.500,4308.4441,N,07726.0654,W,1,06,1.87,143.7,M,-34.4,M,,*5A
$GPRMC,233814.750,A,4308.4444,N,07726.0637,W,18.71,74.11,010823,,,A*7C
$GPGGA,233815.000,4308.4448,N,07726.0619,W,1,06,1.81,143.7,M,-34.4,M,,*58
$GPRMC,233815.250,A,4308.4451,N,07726.0600,W,19.52,75.04,010823,,,A*7D
$GPGGA,233815.500,4308.4454,N,07726.0582,W,1,06,1.87,143.6,M,-34.4,M,,*56
$GPRMC,233815.750,A,4308.4457,N,07726.0564,W,19.63,75.38,010823,,,A*72
$GPGGA,233816.000,4308.4460,N,07726.0546,W,1,06,1.81,143.6,M,-34.4,M,,*59
$GPRMC,233816.250,A,4308.4463,N,07726.0528,W,19.93,74.99,010823,,,A*7E
$GPGGA,233816.500,4308.4467,N,07726.0510,W,1,06,1.87,143.5,M,-34.4,M,,*5D
$GPRMC,233816.750,A,4308.4470,N,07726.0491,W,20.05,74.42,010823,,,A*79
$GPGGA,233817.000,4308.4473,N,07726.0474,W,1,06,1.81,143.4,M,-34.4,M,,*58
$GPRMC,233817.250,A,4308.4476,N,07726.0455,W,20.15,74.12,010823,,,A*77
$GPGGA,233817.500,4308.4480,N,07726.0437,W,1,06,1.87,143.3,M,-34.4,M,,*57
$GPRMC,233817.750,A,4308.4483,N,07726.0419,W,20.26,73.43,010823,,,A*73
$GPGGA,233818.000,4308.4487,N,07726.0401,W,1,06,1.81,143.2,M,-34.4,M,,*58
$GPRMC,233818.250,A,4308.4490,N,07726.0383,W,20.34,73.40,010823,,,A*7F
$GPGGA,233818.500,4308.4494,N,07726.0364,W,1,06,1.87,143.1,M,-34.4,M,,*5E
$GPRMC,233818.750,A,4308.4499,N,07726.0346,W,20.19,72.60,010823,,,A*76
$GPGGA,233819.000,4308.4503,N,07726.0329,W,1,06,1.81,143.0,M,-34.4,M,,*5B
$GPRMC,233819.250,A,4308.4507,N,07726.0311,W,20.07,71.61,010823,,,A*7B
$GPGGA,233819.500,4308.4511,N,07726.0293,W,1,06,1.81,142.9,M,-34.4,M,,*55
$GPRMC,233819.750,A,4308.4516,N,07726.0275,W,20.10,71.48,010823,,,A*70
$GPGGA,233820.000,4308.4520,N,07726.0257,W,1,06,1.81,142.7,M,-34.4,M,,*5E
$GPRMC,233820.250,A,4308.4524,N,07726.0239,W,20.11,71.14,010823,,,A*7E
$GPGGA,233820.500,4308.4528,N,07726.0221,W,1,06,1.87,142.5,M,-34.4,M,,*56
$GPRMC,233820.750,A,4308.4532,N,07726.0204,W,20.15,70.43,010823,,,A*75
$GPGGA,233821.000,4308.4537,N,07726.0186,W,1,06,1.81,142.3,M,-34.4,M,,*52
$GPRMC,233821.250,A,4308.4542,N,07726.0169,W,19.92,69.21,010823,,,A*77
$GPGGA,233821.500,4308.4547,N,07726.0152,W,1,06,1.87,142.0,M,-34.4,M,,*5C
$GPRMC,233821.750,A,4308.4552,N,07726.0135,W,19.67,67.79,010823,,,A*73
$GPGGA,233822.000,4308.4557,N,07726.0117,W,1,06,1.87,141.9,M,-34.4,M,,*50
$GPRMC,233822.250,A,4308.4563,N,07726.0100,W,19.73,66.35,010823,,,A*7D
$GPGGA,233822.500,4308.4569,N,07726.0083,W,1,06,1.87,141.7,M,-34.4,M,,*5A
$GPRMC,233822.750,A,4308.4575,N,07726.0066,W,19.84,64.15,010823,,,A*76
$GPGGA,233823.000,4308.4581,N,07726.0049,W,1,06,1.87,141.6,M,-34.4,M,,*5F
$GPRMC,233823.250,A,4308.4587,N,07726.0032,W,19.89,63.12,010823,,,A*73
$GPGGA,233823.500,4308.4593,N,07726.0016,W,1,06,1.81,141.5,M,-34.4,M,,*56
$GPRMC,233823.750,A,4308.4599,N,07725.9999,W,19.90,62.26,010823,,,A*75
$GPGGA,233824.000,4308.4605,N,07725.9983,W,1,06,1.81,141.3,M,-34.4,M,,*51
$GPRMC,233824.250,A,4308.4612,N,07725.9966,W,19.89,61.40,010823,,,A*7C
$GPGGA,233824.500,4308.4619,N,07725.9951,W,1,06,1.81,141.1,M,-34.4,M,,*54
$GPRMC,233824.750,A,4308.4625,N,07725.9938,W,19.20,58.23,010823,,,A*7A
$GPGGA,233825.000,4308.4633,N,07725.9923,W,1,06,1.81,141.1,M,-34.4,M,,*5D
$GPRMC,233825.250,A,4308.4641,N,07725.9907,W,19.17,55.75,010823,,,A*7A
$GPGGA,233825.500,4308.4650,N,07725.9890,W,1,06,1.87,141.2,M,-34.4,M,,*51
$GPRMC,233825.750,A,4308.4660,N,07725.9874,W,19.93,52.20,010823,,,A*72
$GPGGA,233826.000,4308.4669,N,07725.9858,W,1,06,1.87,141.3,M,-34.4,M,,*58
$GPRMC,233826.250,A,4308.4678,N,07725.9842,W,20.23,49.88,010823,,,A*71
$GPGGA,233826.500,4308.4688,N,07725.9827,W,1,06,1.87,141.4,M,-34.4,M,,*5D
$GPRMC,233826.750,A,4308.4698,N,07725.9811,W,20.59,48.23,010823,,,A*71
$GPGGA,233827.000,4308.4708,N,07725.9796,W,1,06,1.81,141.4,M,-34.4,M,,*53
$GPRMC,233827.250,A,4308.4718,N,07725.9782,W,20.86,47.11,010823,,,A*75
$GPGGA,233827.500,4308.4728,N,07725.9767,W,1,06,1.87,141.3,M,-34.4,M,,*5B
$GPRMC,233827.750,A,4308.4738,N,07725.9752,W,21.09,46.67,010823,,,A*79
$GPGGA,233828.000,4308.4749,N,07725.9737,W,1,06,1.81,141.2,M,-34.4,M,,*54
$GPRMC,233828.250,A,4308.4759,N,07725.9722,W,21.35,46.70,010823,,,A*7A
$GPGGA,233828.500,4308.4770,N,07725.9706,W,1,06,1.87,141.1,M,-34.4,M,,*5C
$GPRMC,233828.750,A,4308.4781,N,07725.9691,W,21.82,46.78,010823,,,A*77
$GPGGA,233829.000,4308.4791,N,07725.9675,W,1,06,1.81,141.1,M,-34.4,M,,*54
$GPRMC,233829.250,A,4308.4802,N,07725.9659,W,22.09,47.49,010823,,,A*70
$GPGGA,233829.500,4308.4813,N,07725.9643,W,1,06,1.87,141.0,M,-34.4,M,,*56
$GPRMC,233829.750,A,4308.4823,N,07725.9627,W,22.29,48.14,010823,,,A*7A
$GPGGA,233830.000,4308.4834,N,07725.9610,W,1,06,1.81,140.8,M,-34.4,M,,*57
$GPRMC,233830.250,A,4308.4845,N,07725.9594,W,22.62,48.71,010823,,,A*70
$GPGGA,233830.500,4308.4856,N,07725.9577,W,1,06,1.87,140.7,M,-34.4,M,,*5D
$GPRMC,233830.750,A,4308.4868,N,07725.9560,W,22.89,47.97,010823,,,A*73
$GPGGA,233831.000,4308.4879,N,07725.9543,W,1,06,1.81,140.5,M,-34.4,M,,*57
$GPRMC,233831.250,A,4308.4891,N,07725.9525,W,23.26,47.69,010823,,,A*75
$GPGGA,233831.500,4308.4902,N,07725.9508,W,1,06,1.81,140.4,M,-34.4,M,,*51
$GPRMC,233831.750,A,4308.4914,N,07725.9491,W,23.66,47.65,010823,,,A*7A
$GPGGA,233832.000,4308.4925,N,07725.9474,W,1,06,1.81,140.2,M,-34.4,M,,*5E
$GPRMC,233832.250,A,4308.4937,N,07725.9456,W,23.99,47.97,010823,,,A*7B
$GPGGA,233832.500,4308.4949,N,07725.9439,W,1,06,1.87,140.1,M,-34.4,M,,*5D
$GPRMC,233832.750,A,4308.4961,N,07725.9421,W,24.23,47.25,010823,,,A*72
$GPGGA,233833.000,4308.4972,N,07725.9404,W,1,06,1.81,140.0,M,-34.4,M,,*58
$GPRMC,233833.250,A,4308.4984,N,07725.9386,W,24.46,46.98,010823,,,A*73
$GPGGA,233833.500,4308.4996,N,07725.9369,W,1,06,1.87,139.9,M,-34.4,M,,*5A
$GPRMC,233833.750,A,4308.5008,N,07725.9352,W,24.49,46.48,010823,,,A*71
$GPGGA,233834.000,4308.5019,N,07725.9335,W,1,06,1.81,139.8,M,-34.4,M,,*59
$GPRMC,233834.250,A,4308.5031,N,07725.9318,W,24.54,46.70,010823,,,A*70
$GPGGA,233834.500,4308.5042,N,07725.9301,W,1,06,1.87,139.8,M,-34.4,M,,*53
$GPRMC,233834.750,A,4308.5053,N,07725.9284,W,24.51,46.96,010823,,,A*78
$GPGGA,233835.000,4308.5064,N,07725.9267,W,1,06,1.81,139.7,M,-34.4,M,,*5B
$GPRMC,233835.250,A,4308.5076,N,07725.9250,W,24.50,47.00,010823,,,A*7D
$GPGGA,233835.500,4308.5088,N,07725.9232,W,1,06,1.87,139.7,M,-34.4,M,,*5A
$GPRMC,233835.750,A,4308.5099,N,07725.9215,W,24.73,46.96,010823,,,A*77
$GPGGA,233836.000,4308.5112,N,07725.9197,W,1,06,1.81,139.6,M,-34.4,M,,*55
$GPRMC,233836.250,A,4308.5124,N,07725.9180,W,24.83,46.70,010823,,,A*7E
$GPGGA,233836.500,4308.5136,N,07725.9163,W,1,06,1.87,139.5,M,-34.4,M,,*58
$GPRMC,233836.750,A,4308.5148,N,07725.9145,W,24.93,46.70,010823,,,A*79
$GPGGA,233837.000,4308.5160,N,07725.9128,W,1,06,1.81,139.4,M,-34.4,M,,*57
$GPRMC,233837.250,A,4308.5172,N,07725.9110,W,24.99,46.90,010823,,,A*70
$GPGGA,233837.500,4308.5183,N,07725.9093,W,1,06,1.87,139.3,M,-34.4,M,,*5F
$GPRMC,233837.750,A,4308.5195,N,07725.9075,W,24.97,47.20,010823,,,A*7A
$GPGGA,233838.000,4308.5206,N,07725.9058,W,1,06,1.81,139.2,M,-34.4,M,,*5B
$GPRMC,233838.250,A,4308.5218,N,07725.9040,W,24.98,47.00,010823,,,A*7D
$GPGGA,233838.500,4308.5231,N,07725.9022,W,1,06,1.87,139.2,M,-34.4,M,,*51
$GPRMC,233838.750,A,4308.5243,N,07725.9004,W,25.20,46.64,010823,,,A*77
$GPGGA,233839.000,4308.5255,N,07725.8986,W,1,06,1.81,139.1,M,-34.4,M,,*54
$GPRMC,233839.250,A,4308.5267,N,07725.8969,W,24.95,46.44,010823,,,A*7B
$GPGGA,233839.500,4308.5279,N,07725.8952,W,1,06,1.87,139.0,M,-34.4,M,,*51
$GPRMC,233839.750,A,4308.5291,N,07725.8934,W,24.74,46.44,010823,,,A*70
$GPGGA,233840.000,4308.5303,N,07725.8917,W,1,06,1.81,138.9,M,-34.4,M,,*59
$GPRMC,233840.250,A,4308.5315,N,07725.8900,W,24.52,46.60,010823,,,A*73
$GPGGA,233840.500,4308.5326,N,07725.8883,W,1,06,1.87,138.9,M,-34.4,M,,*51
$GPRMC,233840.750,A,4308.5337,N,07725.8866,W,24.30,46.61,010823,,,A*72
$GPGGA,233841.000,4308.5349,N,07725.8849,W,1,06,1.81,138.8,M,-34.4,M,,*5D
$GPRMC,233841.250,A,4308.5360,N,07725.8832,W,24.04,46.84,010823,,,A*79
$GPGGA,233841.500,4308.5371,N,07725.8815,W,1,06,1.87,138.9,M,-34.4,M,,*5D
$GPRMC,233841.750,A,4308.5381,N,07725.8799,W,23.85,46.48,010823,,,A*73
$GPGGA,233842.000,4308.5393,N,07725.8782,W,1,06,1.87,138.9,M,-34.4,M,,*56
$GPRMC,233842.250,A,4308.5404,N,07725.8765,W,24.08,46.03,010823,,,A*71
$GPGGA,233842.500,4308.5416,N,07725.8749,W,1,06,1.87,138.9,M,-34.4,M,,*5E
$GPRMC,233842.750,A,4308.5427,N,07725.8732,W,24.25,45.91,010823,,,A*70
$GPGGA,233843.000,4308.5438,N,07725.8715,W,1,06,1.81,138.8,M,-34.4,M,,*58
$GPRMC,233843.250,A,4308.5449,N,07725.8699,W,23.98,46.10,010823,,,A*77
$GPGGA,233843.500,4308.5459,N,07725.8682,W,1,06,1.87,138.8,M,-34.4,M,,*53
$GPRMC,233843.750,A,4308.5470,N,07725.8666,W,23.79,46.01,010823,,,A*77
$GPGGA,233844.000,4308.5481,N,07725.8650,W,1,06,1.87,138.7,M,-34.4,M,,*54
$GPRMC,233844.250,A,4308.5492,N,07725.8633,W,23.69,45.99,010823,,,A*7A
$GPGGA,233844.500,4308.5502,N,07725.8617,W,1,06,1.87,138.7,M,-34.4,M,,*58
$GPRMC,233844.750,A,4308.5512,N,07725.8601,W,23.42,46.43,010823,,,A*7A
$GPGGA,233845.000,4308.5522,N,07725.8585,W,1,06,1.87,138.6,M,-34.4,M,,*57
$GPRMC,233845.250,A,4308.5531,N,07725.8568,W,23.29,47.08,010823,,,A*70
$GPGGA,233845.500,4308.5541,N,07725.8552,W,1,06,1.87,138.5,M,-34.4,M,,*5E
$GPRMC,233845.750,A,4308.5550,N,07725.8536,W,22.98,47.13,010823,,,A*78
$GPGGA,233846.000,4308.5560,N,07725.8520,W,1,06,1.87,138.4,M,-34.4,M,,*5F
$GPRMC,233846.250,A,4308.5570,N,07725.8504,W,22.95,47.05,010823,,,A*77
$GPGGA,233846.500,4308.5580,N,07725.8488,W,1,06,1.87,138.3,M,-34.4,M,,*50
$GPRMC,233846.750,A,4308.5590,N,07725.8471,W,23.01,46.79,010823,,,A*79
$GPGGA,233847.000,4308.5601,N,07725.8455,W,1,06,1.87,138.2,M,-34.4,M,,*5F
$GPRMC,233847.250,A,4308.5611,N,07725.8439,W,23.10,46.81,010823,,,A*7C
$GPGGA,233847.500,4308.5622,N,07725.8422,W,1,06,1.87,138.1,M,-34.4,M,,*58
$GPRMC,233847.750,A,4308.5634,N,07725.8406,W,23.41,46.24,010823,,,A*79
$GPGGA,233848.000,4308.5645,N,07725.8390,W,1,06,1.87,138.1,M,-34.4,M,,*5D
$GPRMC,233848.250,A,4308.5656,N,07725.8373,W,23.51,46.35,010823,,,A*73
$GPGGA,233848.500,4308.5667,N,07725.8357,W,1,06,1.87,138.1,M,-34.4,M,,*53
$GPRMC,233848.750,A,4308.5677,N,07725.8341,W,23.59,46.72,010823,,,A*7F
$GPGGA,233849.000,4308.5688,N,07725.8324,W,1,06,1.81,138.1,M,-34.4,M,,*54
$GPRMC,233849.250,A,4308.5699,N,07725.8307,W,23.67,46.95,010823,,,A*7D
$GPGGA,233849.500,4308.5710,N,07725.8291,W,1,06,1.87,138.1,M,-34.4,M,,*58
$GPRMC,233849.750,A,4308.5722,N,07725.8274,W,23.74,47.38,010823,,,A*78
$GPGGA,233850.000,4308.5733,N,07725.8258,W,1,06,1.81,138.2,M,-34.4,M,,*54
$GPRMC,233850.250,A,4308.5744,N,07725.8241,W,23.47,47.14,010823,,,A*7D
$GPGGA,233850.500,4308.5755,N,07725.8225,W,1,06,1.87,138.2,M,-34.4,M,,*5D
$GPRMC,233850.750,A,4308.5766,N,07725.8209,W,23.33,46.83,010823,,,A*78
$GPGGA,233851.000,4308.5778,N,07725.8193,W,1,06,1.81,138.2,M,-34.4,M,,*5E
$GPRMC,233851.250,A,4308.5789,N,07725.8177,W,23.17,46.39,010823,,,A*70
$GPGGA,233851.500,4308.5801,N,07725.8161,W,1,06,1.87,138.2,M,-34.4,M,,*51
$GPRMC,233851.750,A,4308.5813,N,07725.8145,W,23.40,45.58,010823,,,A*7E
$GPGGA,233852.000,4308.5826,N,07725.8128,W,1,06,1.81,138.3,M,-34.4,M,,*58
$GPRMC,233852.250,A,4308.5838,N,07725.8112,W,23.68,45.44,010823,,,A*74
$GPGGA,233852.500,4308.5850,N,07725.8096,W,1,06,1.87,138.3,M,-34.4,M,,*5E
$GPRMC,233852.750,A,4308.5862,N,07725.8079,W,23.75,45.15,010823,,,A*7A
$GPGGA,233853.000,4308.5873,N,07725.8063,W,1,06,1.87,138.3,M,-34.4,M,,*51
$GPRMC,233853.250,A,4308.5885,N,07725.8046,W,23.84,46.01,010823,,,A*73
$GPGGA,233853.500,4308.5896,N,07725.8028,W,1,06,1.87,138.5,M,-34.4,M,,*56
$GPRMC,233853.750,A,4308.5907,N,07725.8011,W,24.03,47.53,010823,,,A*71
$GPGGA,233854.000,4308.5918,N,07725.7993,W,1,06,1.87,138.7,M,-34.4,M,,*57
$GPRMC,233854.250,A,4308.5929,N,07725.7976,W,24.04,48.28,010823,,,A*7C
$GPGGA,233854.500,4308.5940,N,07725.7958,W,1,06,1.87,139.0,M,-34.4,M,,*5E
$GPRMC,233854.750,A,4308.5951,N,07725.7941,W,23.95,49.00,010823,,,A*76
$GPGGA,233855.000,4308.5962,N,07725.7923,W,1,06,1.87,139.2,M,-34.4,M,,*54
$GPRMC,233855.250,A,4308.5972,N,07725.7906,W,23.77,49.52,010823,,,A*7B
$GPGGA,233855.500,4308.5983,N,07725.7888,W,1,06,1.87,139.5,M,-34.4,M,,*59
$GPRMC,233855.750,A,4308.5993,N,07725.7871,W,23.74,50.00,010823,,,A*7C
$GPGGA,233856.000,4308.6004,N,07725.7853,W,1,06,1.87,139.6,M,-34.4,M,,*5F
$GPRMC,233856.250,A,4308.6014,N,07725.7836,W,23.56,51.10,010823,,,A*7C
$GPGGA,233856.500,4308.6024,N,07725.7818,W,1,06,1.87,139.7,M,-34.4,M,,*56
$GPRMC,233856.750,A,4308.6035,N,07725.7800,W,23.56,52.02,010823,,,A*7F
$GPGGA,233857.000,4308.6045,N,07725.7783,W,1,06,1.87,139.7,M,-34.4,M,,*58
$GPRMC,233857.250,A,4308.6055,N,07725.7764,W,23.79,52.79,010823,,,A*71
$GPGGA,233857.500,4308.6065,N,07725.7745,W,1,06,1.81,139.7,M,-34.4,M,,*53
$GPRMC,233857.750,A,4308.6075,N,07725.7726,W,24.01,53.69,010823,,,A*78
$GPGGA,233858.000,4308.6085,N,07725.7707,W,1,06,1.81,139.6,M,-34.4,M,,*50
$GPRMC,233858.250,A,4308.6093,N,07725.7687,W,24.38,56.00,010823,,,A*70
$GPGGA,233858.500,4308.6100,N,07725.7662,W,1,06,1.87,139.4,M,-34.4,M,,*5F
$GPRMC,233858.750,A,4308.6107,N,07725.7640,W,25.38,60.88,010823,,,A*76
$GPGGA,233859.000,4308.6113,N,07725.7620,W,1,06,1.81,139.4,M,-34.4,M,,*59
$GPRMC,233859.250,A,4308.6119,N,07725.7598,W,25.31,64.67,010823,,,A*77
$GPGGA,233859.500,4308.6124,N,07725.7577,W,1,06,1.81,139.4,M,-34.4,M,,*59
$GPRMC,233859.750,A,4308.6130,N,07725.7555,W,25.41,69.20,010823,,,A*71
$GPGGA,233900.000,4308.6136,N,07725.7533,W,1,06,1.81,139.3,M,-34.4,M,,*55
$GPRMC,233900.250,A,4308.6142,N,07725.7510,W,25.79,71.86,010823,,,A*73
$GPGGA,233900.500,4308.6147,N,07725.7486,W,1,06,1.87,139.2,M,-34.4,M,,*5E
$GPRMC,233900.750,A,4308.6152,N,07725.7462,W,26.13,74.84,010823,,,A*7B
$GPGGA,233901.000,4308.6156,N,07725.7438,W,1,06,1.87,139.1,M,-34.4,M,,*5C
$GPRMC,233901.250,A,4308.6160,N,07725.7413,W,26.51,77.07,010823,,,A*76
$GPGGA,233901.500,4308.6163,N,07725.7388,W,1,06,1.87,139.1,M,-34.4,M,,*53
$GPRMC,233901.750,A,4308.6165,N,07725.7363,W,26.66,81.11,010823,,,A*7C
$GPGGA,233902.000,4308.6167,N,07725.7337,W,1,06,1.87,139.0,M,-34.4,M,,*54
$GPRMC,233902.250,A,4308.6169,N,07725.7312,W,26.89,83.95,010823,,,A*7F
$GPGGA,233902.500,4308.6170,N,07725.7285,W,1,06,1.87,139.0,M,-34.4,M,,*5F
$GPRMC,233902.750,A,4308.6171,N,07725.7259,W,27.33,86.74,010823,,,A*77
$GPGGA,233903.000,4308.6172,N,07725.7232,W,1,06,1.81,139.0,M,-34.4,M,,*53
$GPRMC,233903.250,A,4308.6173,N,07725.7205,W,27.62,88.83,010823,,,A*7A
$GPGGA,233903.500,4308.6174,N,07725.7179,W,1,06,1.87,139.1,M,-34.4,M,,*5B
$GPRMC,233903.750,A,4308.6174,N,07725.7152,W,27.81,89.80,010823,,,A*76
$GPGGA,233904.000,4308.6174,N,07725.7125,W,1,06,1.87,139.1,M,-34.4,M,,*50
$GPRMC,233904.250,A,4308.6174,N,07725.7098,W,28.22,90.45,010823,,,A*74
$GPGGA,233904.500,4308.6174,N,07725.7071,W,1,06,1.87,139.3,M,-34.4,M,,*57
$GPRMC,233904.750,A,4308.6175,N,07725.7044,W,27.98,90.28,010823,,,A*74
$GPGGA,233905.000,4308.6175,N,07725.7017,W,1,06,1.81,139.3,M,-34.4,M,,*54
$GPRMC,233905.250,A,4308.6175,N,07725.6991,W,27.53,89.90,010823,,,A*7C
$GPGGA,233905.500,4308.6176,N,07725.6965,W,1,06,1.87,139.5,M,-34.4,M,,*5F
$GPRMC,233905.750,A,4308.6177,N,07725.6938,W,27.26,89.42,010823,,,A*75
$GPGGA,233906.000,4308.6177,N,07725.6912,W,1,06,1.81,139.6,M,-34.4,M,,*5D
$GPRMC,233906.250,A,4308.6178,N,07725.6886,W,26.84,89.11,010823,,,A*77
$GPGGA,233906.500,4308.6179,N,07725.6860,W,1,06,1.87,139.9,M,-34.4,M,,*5B
$GPRMC,233906.750,A,4308.6181,N,07725.6834,W,26.61,88.76,010823,,,A*76
$GPGGA,233907.000,4308.6181,N,07725.6808,W,1,06,1.87,140.1,M,-34.4,M,,*50
$GPRMC,233907.250,A,4308.6182,N,07725.6783,W,26.34,89.05,010823,,,A*77
$GPGGA,233907.500,4308.6183,N,07725.6758,W,1,06,1.87,140.3,M,-34.4,M,,*5F
$GPRMC,233907.750,A,4308.6184,N,07725.6733,W,25.96,88.79,010823,,,A*7E
$GPGGA,233908.000,4308.6185,N,07725.6708,W,1,06,1.87,140.5,M,-34.4,M,,*50
$GPRMC,233908.250,A,4308.6185,N,07725.6684,W,25.88,88.22,010823,,,A*79
$GPGGA,233908.500,4308.6186,N,07725.6660,W,1,06,1.87,140.7,M,-34.4,M,,*5B
$GPRMC,233908.750,A,4308.6186,N,07725.6635,W,25.49,88.51,010823,,,A*7C
$GPGGA,233909.000,4308.6186,N,07725.6611,W,1,06,1.87,140.8,M,-34.4,M,,*56
$GPRMC,233909.250,A,4308.6186,N,07725.6589,W,24.69,89.00,010823,,,A*7A
$GPGGA,233909.500,4308.6186,N,07725.6566,W,1,06,1.87,140.9,M,-34.4,M,,*51
$GPRMC,233909.750,A,4308.6186,N,07725.6543,W,24.15,89.42,010823,,,A*74
$GPGGA,233910.000,4308.6187,N,07725.6520,W,1,06,1.87,141.0,M,-34.4,M,,*57
$GPRMC,233910.250,A,4308.6187,N,07725.6498,W,23.94,88.91,010823,,,A*7E
$GPGGA,233910.500,4308.6187,N,07725.6475,W,1,06,1.87,141.1,M,-34.4,M,,*52
$GPRMC,233910.750,A,4308.6188,N,07725.6452,W,23.72,88.73,010823,,,A*76
$GPGGA,233911.000,4308.6188,N,07725.6430,W,1,06,1.87,141.3,M,-34.4,M,,*5A
$GPRMC,233911.250,A,4308.6189,N,07725.6408,W,23.30,88.73,010823,,,A*7A
$GPGGA,233911.500,4308.6189,N,07725.6386,W,1,06,1.87,141.6,M,-34.4,M,,*51
$GPRMC,233911.750,A,4308.6189,N,07725.6365,W,22.90,88.96,010823,,,A*73
$GPGGA,233912.000,4308.6189,N,07725.6343,W,1,06,1.87,142.0,M,-34.4,M,,*5B
$GPRMC,233912.250,A,4308.6190,N,07725.6322,W,22.42,88.90,010823,,,A*77
$GPGGA,233912.500,4308.6189,N,07725.6302,W,1,06,1.87,142.5,M,-34.4,M,,*5E
$GPRMC,233912.750,A,4308.6189,N,07725.6282,W,21.95,89.18,010823,,,A*79
$GPGGA,233913.000,4308.6189,N,07725.6261,W,1,06,1.87,142.8,M,-34.4,M,,*53
$GPRMC,233913.250,A,4308.6188,N,07725.6241,W,21.42,90.14,010823,,,A*7D
$GPGGA,233913.500,4308.6187,N,07725.6222,W,1,06,1.87,143.0,M,-34.4,M,,*56
$GPRMC,233913.750,A,4308.6187,N,07725.6202,W,20.95,90.71,010823,,,A*78
$GPGGA,233914.000,4308.6187,N,07725.6182,W,1,06,1.87,143.2,M,-34.4,M,,*5F
$GPRMC,233914.250,A,4308.6187,N,07725.6162,W,20.72,90.58,010823,,,A*7D
$GPGGA,233914.500,4308.6187,N,07725.6143,W,1,06,1.87,143.2,M,-34.4,M,,*57
$GPRMC,233914.750,A,4308.6186,N,07725.6124,W,20.19,90.47,010823,,,A*78
$GPGGA,233915.000,4308.6186,N,07725.6106,W,1,06,1.87,143.4,M,-34.4,M,,*55
$GPRMC,233915.250,A,4308.6185,N,07725.6088,W,19.80,90.09,010823,,,A*78
$GPGGA,233915.500,4308.6186,N,07725.6070,W,1,06,1.87,143.6,M,-34.4,M,,*52
$GPRMC,233915.750,A,4308.6185,N,07725.6053,W,19.14,88.97,010823,,,A*78
$GPGGA,233916.000,4308.6185,N,07725.6036,W,1,06,1.87,143.9,M,-34.4,M,,*5A
$GPRMC,233916.250,A,4308.6185,N,07725.6019,W,18.46,89.10,010823,,,A*78
$GPGGA,233916.500,4308.6185,N,07725.6003,W,1,06,1.87,144.2,M,-34.4,M,,*55
$GPRMC,233916.750,A,4308.6184,N,07725.5987,W,17.71,89.53,010823,,,A*7D
$GPGGA,233917.000,4308.6184,N,07725.5971,W,1,06,1.87,144.5,M,-34.4,M,,*58
$GPRMC,233917.250,A,4308.6183,N,07725.5957,W,16.78,89.96,010823,,,A*72
$GPGGA,233917.500,4308.6183,N,07725.5945,W,1,06,1.87,144.8,M,-34.4,M,,*50
$GPRMC,233917.750,A,4308.6184,N,07725.5933,W,15.66,90.03,010823,,,A*7A
$GPGGA,233918.000,4308.6184,N,07725.5919,W,1,06,1.87,145.1,M,-34.4,M,,*5C
$GPRMC,233918.250,A,4308.6183,N,07725.5907,W,14.67,90.83,010823,,,A*78
$GPGGA,233918.500,4308.6183,N,07725.5895,W,1,06,1.87,145.3,M,-34.4,M,,*59
$GPRMC,233918.750,A,4308.6182,N,07725.5883,W,13.90,91.22,010823,,,A*74
$GPGGA,233919.000,4308.6182,N,07725.5872,W,1,06,1.87,145.3,M,-34.4,M,,*55
$GPRMC,233919.250,A,4308.6182,N,07725.5860,W,12.77,91.82,010823,,,A*7F
$GPGGA,233919.500,4308.6183,N,07725.5849,W,1,06,1.87,145.4,M,-34.4,M,,*5E
$GPRMC,233919.750,A,4308.6182,N,07725.5838,W,11.65,93.90,010823,,,A*76
$GPGGA,233920.000,4308.6181,N,07725.5828,W,1,06,1.81,145.5,M,-34.4,M,,*53
$GPRMC,233920.250,A,4308.6179,N,07725.5818,W,10.71,96.34,010823,,,A*70
$GPGGA,233920.500,4308.6175,N,07725.5809,W,1,06,1.87,145.6,M,-34.4,M,,*5B
$GPRMC,233920.750,A,4308.6173,N,07725.5801,W,10.16,103.82,010823,,,A*46
$GPGGA,233921.000,4308.6170,N,07725.5794,W,1,06,1.87,145.7,M,-34.4,M,,*50
$GPRMC,233921.250,A,4308.6167,N,07725.5790,W,8.67,110.46,010823,,,A*75
$GPGGA,233921.500,4308.6165,N,07725.5786,W,1,06,1.87,146.0,M,-34.4,M,,*56
$GPRMC,233921.750,A,4308.6158,N,07725.5785,W,7.75,126.09,010823,,,A*7A
$GPGGA,233922.000,4308.6153,N,07725.5780,W,1,06,1.81,146.3,M,-34.4,M,,*56
$GPRMC,233922.250,A,4308.6148,N,07725.5776,W,8.21,137.52,010823,,,A*71
$GPGGA,233922.500,4308.6142,N,07725.5774,W,1,06,1.87,146.4,M,-34.4,M,,*59
$GPRMC,233922.750,A,4308.6136,N,07725.5770,W,8.67,146.57,010823,,,A*7A
$GPGGA,233923.000,4308.6130,N,07725.5767,W,1,06,1.81,146.5,M,-34.4,M,,*5D
$GPRMC,233923.250,A,4308.6123,N,07725.5765,W,9.16,154.31,010823,,,A*7A
$GPGGA,233923.500,4308.6117,N,07725.5762,W,1,06,1.87,146.7,M,-34.4,M,,*5C
$GPRMC,233923.750,A,4308.6110,N,07725.5760,W,9.20,157.63,010823,,,A*7B
$GPGGA,233924.000,4308.6104,N,07725.5759,W,1,06,1.81,146.9,M,-34.4,M,,*5C
$GPRMC,233924.250,A,4308.6097,N,07725.5758,W,9.16,162.43,010823,,,A*7D
$GPGGA,233924.500,4308.6089,N,07725.5758,W,1,06,1.87,147.1,M,-34.4,M,,*53
$GPRMC,233924.750,A,4308.6079,N,07725.5759,W,9.85,168.53,010823,,,A*78
$GPGGA,233925.000,4308.6069,N,07725.5760,W,1,06,1.81,147.4,M,-34.4,M,,*51
$GPRMC,233925.250,A,4308.6055,N,07725.5763,W,11.08,175.41,010823,,,A*48
$GPGGA,233925.500,4308.6043,N,07725.5766,W,1,06,1.81,147.6,M,-34.4,M,,*58
$GPRMC,233925.750,A,4308.6032,N,07725.5768,W,11.78,177.87,010823,,,A*48
$GPGGA,233926.000,4308.6022,N,07725.5768,W,1,06,1.81,147.7,M,-34.4,M,,*56
$GPRMC,233926.250,A,4308.6012,N,07725.5770,W,12.20,179.62,010823,,,A*4E
$GPGGA,233926.500,4308.6002,N,07725.5770,W,1,06,1.81,147.8,M,-34.4,M,,*57
$GPRMC,233926.750,A,4308.5991,N,07725.5771,W,13.19,180.55,010823,,,A*42
$GPGGA,233927.000,4308.5981,N,07725.5771,W,1,06,1.81,147.9,M,-34.4,M,,*52
$GPRMC,233927.250,A,4308.5971,N,07725.5772,W,13.81,181.68,010823,,,A*45
$GPGGA,233927.500,4308.5960,N,07725.5772,W,1,06,1.81,148.0,M,-34.4,M,,*5D
$GPRMC,233927.750,A,4308.5949,N,07725.5772,W,14.57,181.99,010823,,,A*49
$GPGGA,233928.000,4308.5938,N,07725.5772,W,1,06,1.81,148.0,M,-34.4,M,,*5A
$GPRMC,233928.250,A,4308.5927,N,07725.5772,W,15.22,181.63,010823,,,A*4D
$GPGGA,233928.500,4308.5915,N,07725.5773,W,1,06,1.81,148.1,M,-34.4,M,,*50
$GPRMC,233928.750,A,4308.5903,N,07725.5773,W,15.95,180.75,010823,,,A*45
$GPGGA,233929.000,4308.5891,N,07725.5772,W,1,06,1.81,148.2,M,-34.4,M,,*5B
$GPRMC,233929.250,A,4308.5880,N,07725.5772,W,16.16,180.50,010823,,,A*45
$GPGGA,233929.500,4308.5869,N,07725.5772,W,1,06,1.81,148.2,M,-34.4,M,,*59
$GPRMC,233929.750,A,4308.5857,N,07725.5772,W,16.38,180.51,010823,,,A*47
$GPGGA,233930.000,4308.5846,N,07725.5772,W,1,06,1.81,148.2,M,-34.4,M,,*59
$GPRMC,233930.250,A,4308.5835,N,07725.5772,W,16.69,180.88,010823,,,A*4E
$GPGGA,233930.500,4308.5822,N,07725.5773,W,1,06,1.87,148.2,M,-34.4,M,,*59
$GPRMC,233930.750,A,4308.5809,N,07725.5773,W,17.49,180.98,010823,,,A*47
$GPGGA,233931.000,4308.5797,N,07725.5774,W,1,06,1.81,148.3,M,-34.4,M,,*5C
$GPRMC,233931.250,A,4308.5785,N,07725.5774,W,17.49,180.93,010823,,,A*44
$GPGGA,233931.500,4308.5772,N,07725.5774,W,1,06,1.87,148.4,M,-34.4,M,,*53
$GPRMC,233931.750,A,4308.5758,N,07725.5775,W,18.04,180.80,010823,,,A*44
$GPGGA,233932.000,4308.5744,N,07725.5775,W,1,06,1.81,148.5,M,-34.4,M,,*56
$GPRMC,233932.250,A,4308.5729,N,07725.5776,W,18.40,180.95,010823,,,A*43
$GPGGA,233932.500,4308.5715,N,07725.5777,W,1,06,1.81,148.5,M,-34.4,M,,*55
$GPRMC,233932.750,A,4308.5701,N,07725.5778,W,18.73,181.77,010823,,,A*4F
$GPGGA,233933.000,4308.5687,N,07725.5779,W,1,06,1.81,148.6,M,-34.4,M,,*56
$GPRMC,233933.250,A,4308.5673,N,07725.5779,W,19.40,181.18,010823,,,A*46
$GPGGA,233933.500,4308.5658,N,07725.5780,W,1,06,1.81,148.7,M,-34.4,M,,*56
$GPRMC,233933.750,A,4308.5643,N,07725.5781,W,20.15,180.72,010823,,,A*40
$GPGGA,233934.000,4308.5629,N,07725.5782,W,1,06,1.81,148.8,M,-34.4,M,,*5F
$GPRMC,233934.250,A,4308.5613,N,07725.5782,W,20.24,180.47,010823,,,A*40
$GPGGA,233934.500,4308.5597,N,07725.5782,W,1,06,1.81,148.9,M,-34.4,M,,*5D
$GPRMC,233934.750,A,4308.5580,N,07725.5783,W,20.86,180.19,010823,,,A*4E
$GPGGA,233935.000,4308.5563,N,07725.5784,W,1,06,1.87,148.9,M,-34.4,M,,*52
$GPRMC,233935.250,A,4308.5547,N,07725.5785,W,21.36,179.75,010823,,,A*41
$GPGGA,233935.500,4308.5530,N,07725.5786,W,1,06,1.87,148.8,M,-34.4,M,,*52
$GPRMC,233935.750,A,4308.5513,N,07725.5786,W,21.84,179.95,010823,,,A*41
$GPGGA,233936.000,4308.5496,N,07725.5788,W,1,06,1.87,148.8,M,-34.4,M,,*57
$GPRMC,233936.250,A,4308.5479,N,07725.5788,W,22.33,180.16,010823,,,A*46
$GPGGA,233936.500,4308.5461,N,07725.5789,W,1,06,1.87,148.8,M,-34.4,M,,*5B
$GPRMC,233936.750,A,4308.5444,N,07725.5790,W,22.87,180.16,010823,,,A*4B
$GPGGA,233937.000,4308.5427,N,07725.5791,W,1,06,1.81,148.7,M,-34.4,M,,*5D
$GPRMC,233937.250,A,4308.5409,N,07725.5791,W,23.41,180.34,010823,,,A*4C
$GPGGA,233937.500,4308.5391,N,07725.5792,W,1,06,1.81,148.6,M,-34.4,M,,*50
$GPRMC,233937.750,A,4308.5373,N,07725.5791,W,23.91,179.93,010823,,,A*45
$GPGGA,233938.000,4308.5355,N,07725.5791,W,1,06,1.81,148.8,M,-34.4,M,,*5F
$GPRMC,233938.250,A,4308.5336,N,07725.5791,W,24.37,179.74,010823,,,A*4C
$GPGGA,233938.500,4308.5317,N,07725.5791,W,1,06,1.87,148.8,M,-34.4,M,,*5A
$GPRMC,233938.750,A,4308.5298,N,07725.5792,W,25.01,180.45,010823,,,A*4F
$GPGGA,233939.000,4308.5280,N,07725.5792,W,1,06,1.81,148.8,M,-34.4,M,,*54
$GPRMC,233939.250,A,4308.5261,N,07725.5793,W,25.29,180.87,010823,,,A*48
$GPGGA,233939.500,4308.5243,N,07725.5793,W,1,06,1.87,148.7,M,-34.4,M,,*56
$GPRMC,233939.750,A,4308.5225,N,07725.5793,W,25.29,180.88,010823,,,A*42
$GPGGA,233940.000,4308.5207,N,07725.5794,W,1,06,1.81,148.6,M,-34.4,M,,*5D
$GPRMC,233940.250,A,4308.5189,N,07725.5794,W,25.06,180.43,010823,,,A*41
$GPGGA,233940.500,4308.5170,N,07725.5794,W,1,06,1.87,148.6,M,-34.4,M,,*5D
$GPRMC,233940.750,A,4308.5152,N,07725.5794,W,25.00,180.50,010823,,,A*46
$GPGGA,233941.000,4308.5135,N,07725.5794,W,1,06,1.87,148.6,M,-34.4,M,,*58
$GPRMC,233941.250,A,4308.5117,N,07725.5794,W,24.61,180.45,010823,,,A*41
$GPGGA,233941.500,4308.5100,N,07725.5794,W,1,06,1.87,148.5,M,-34.4,M,,*58
$GPRMC,233941.750,A,4308.5083,N,07725.5793,W,24.12,180.11,010823,,,A*4A
$GPGGA,233942.000,4308.5065,N,07725.5793,W,1,06,1.87,148.4,M,-34.4,M,,*5A
$GPRMC,233942.250,A,4308.5048,N,07725.5793,W,24.10,180.00,010823,,,A*49
$GPGGA,233942.500,4308.5030,N,07725.5793,W,1,06,1.87,148.4,M,-34.4,M,,*5F
$GPRMC,233942.750,A,4308.5014,N,07725.5792,W,23.60,180.09,010823,,,A*4D
$GPGGA,233943.000,4308.4997,N,07725.5792,W,1,06,1.87,148.4,M,-34.4,M,,*5F
$GPRMC,233943.250,A,4308.4981,N,07725.5792,W,23.60,180.05,010823,,,A*41
$GPGGA,233943.500,4308.4965,N,07725.5791,W,1,06,1.87,148.3,M,-34.4,M,,*53
$GPRMC,233943.750,A,4308.4948,N,07725.5791,W,23.52,179.87,010823,,,A*4F
$GPGGA,233944.000,4308.4932,N,07725.5791,W,1,06,1.87,148.2,M,-34.4,M,,*52
$GPRMC,233944.250,A,4308.4916,N,07725.5792,W,23.48,180.29,010823,,,A*4C
$GPGGA,233944.500,4308.4899,N,07725.5792,W,1,06,1.87,148.1,M,-34.4,M,,*57
$GPRMC,233944.750,A,4308.4883,N,07725.5792,W,23.41,180.62,010823,,,A*42
$GPGGA,233945.000,4308.4866,N,07725.5793,W,1,06,1.81,148.0,M,-34.4,M,,*55
$GPRMC,233945.250,A,4308.4850,N,07725.5794,W,23.34,181.24,010823,,,A*4F
$GPGGA,233945.500,4308.4833,N,07725.5794,W,1,06,1.87,147.9,M,-34.4,M,,*57
$GPRMC,233945.750,A,4308.4816,N,07725.5796,W,23.35,181.84,010823,,,A*41
$GPGGA,233946.000,4308.4800,N,07725.5797,W,1,06,1.81,147.9,M,-34.4,M,,*54
$GPRMC,233946.250,A,4308.4783,N,07725.5798,W,23.63,181.83,010823,,,A*4E
$GPGGA,233946.500,4308.4766,N,07725.5799,W,1,06,1.81,147.8,M,-34.4,M,,*51
$GPRMC,233946.750,A,4308.4749,N,07725.5799,W,23.66,181.45,010823,,,A*43
$GPGGA,233947.000,4308.4733,N,07725.5800,W,1,06,1.81,147.7,M,-34.4,M,,*55
$GPRMC,233947.250,A,4308.4716,N,07725.5801,W,23.65,181.31,010823,,,A*43
$GPGGA,233947.500,4308.4699,N,07725.5802,W,1,06,1.87,147.7,M,-34.4,M,,*55
$GPRMC,233947.750,A,4308.4683,N,07725.5803,W,23.63,181.41,010823,,,A*48
$GPGGA,233948.000,4308.4666,N,07725.5803,W,1,06,1.81,147.7,M,-34.4,M,,*58
$GPRMC,233948.250,A,4308.4649,N,07725.5804,W,23.64,181.09,010823,,,A*48
$GPGGA,233948.500,4308.4632,N,07725.5805,W,1,06,1.81,147.6,M,-34.4,M,,*5B
$GPRMC,233948.750,A,4308.4616,N,07725.5805,W,23.72,180.64,010823,,,A*4B
$GPGGA,233949.000,4308.4599,N,07725.5805,W,1,06,1.81,147.6,M,-34.4,M,,*5D
$GPRMC,233949.250,A,4308.4582,N,07725.5805,W,23.79,180.58,010823,,,A*45
$GPGGA,233949.500,4308.4565,N,07725.5806,W,1,06,1.81,147.6,M,-34.4,M,,*58
$GPRMC,233949.750,A,4308.4549,N,07725.5807,W,23.84,181.30,010823,,,A*48
$GPGGA,233950.000,4308.4531,N,07725.5809,W,1,06,1.81,147.6,M,-34.4,M,,*5B
$GPRMC,233950.250,A,4308.4514,N,07725.5810,W,24.25,181.57,010823,,,A*46
$GPGGA,233950.500,4308.4496,N,07725.5812,W,1,06,1.81,147.6,M,-34.4,M,,*58
$GPRMC,233950.750,A,4308.4479,N,07725.5813,W,24.58,181.78,010823,,,A*4D
$GPGGA,233951.000,4308.4461,N,07725.5814,W,1,06,1.81,147.5,M,-34.4,M,,*51
$GPRMC,233951.250,A,4308.4444,N,07725.5815,W,24.69,181.95,010823,,,A*40
$GPGGA,233951.500,4308.4426,N,07725.5816,W,1,06,1.81,147.4,M,-34.4,M,,*54
$GPRMC,233951.750,A,4308.4408,N,07725.5818,W,24.82,182.04,010823,,,A*4E
$GPGGA,233952.000,4308.4390,N,07725.5819,W,1,06,1.81,147.3,M,-34.4,M,,*50
$GPRMC,233952.250,A,4308.4372,N,07725.5820,W,25.19,181.71,010823,,,A*4B
$GPGGA,233952.500,4308.4354,N,07725.5821,W,1,06,1.87,147.3,M,-34.4,M,,*50
$GPRMC,233952.750,A,4308.4336,N,07725.5822,W,25.55,180.99,010823,,,A*43
$GPGGA,233953.000,4308.4318,N,07725.5822,W,1,06,1.81,147.2,M,-34.4,M,,*58
$GPRMC,233953.250,A,4308.4300,N,07725.5823,W,25.57,180.95,010823,,,A*4D
$GPGGA,233953.500,4308.4282,N,07725.5824,W,1,06,1.87,147.1,M,-34.4,M,,*5C
$GPRMC,233953.750,A,4308.4263,N,07725.5826,W,25.82,181.52,010823,,,A*4B
$GPGGA,233954.000,4308.4246,N,07725.5827,W,1,06,1.81,147.1,M,-34.4,M,,*53
$GPRMC,233954.250,A,4308.4228,N,07725.5829,W,25.83,181.92,010823,,,A*44
$GPGGA,233954.500,4308.4210,N,07725.5830,W,1,06,1.81,147.0,M,-34.4,M,,*52
$GPRMC,233954.750,A,4308.4193,N,07725.5831,W,25.80,182.07,010823,,,A*47
$GPGGA,233955.000,4308.4175,N,07725.5832,W,1,06,1.81,147.0,M,-34.4,M,,*54
$GPRMC,233955.250,A,4308.4157,N,07725.5835,W,25.98,183.14,010823,,,A*45
$GPGGA,233955.500,4308.4139,N,07725.5836,W,1,06,1.87,147.0,M,-34.4,M,,*5B
$GPRMC,233955.750,A,4308.4121,N,07725.5838,W,26.06,182.95,010823,,,A*40
$GPGGA,233956.000,4308.4103,N,07725.5840,W,1,06,1.81,147.0,M,-34.4,M,,*53
$GPRMC,233956.250,A,4308.4085,N,07725.5842,W,26.11,183.33,010823,,,A*4F
$GPGGA,233956.500,4308.4067,N,07725.5844,W,1,06,1.81,147.0,M,-34.4,M,,*51
$GPRMC,233956.750,A,4308.4048,N,07725.5846,W,26.37,183.64,010823,,,A*49
$GPGGA,233957.000,4308.4030,N,07725.5848,W,1,06,1.81,147.0,M,-34.4,M,,*5B
$GPRMC,233957.250,A,4308.4011,N,07725.5850,W,26.79,183.53,010823,,,A*48
$GPGGA,233957.500,4308.3992,N,07725.5853,W,1,06,1.81,147.0,M,-34.4,M,,*52
$GPRMC,233957.750,A,4308.3973,N,07725.5855,W,26.99,184.10,010823,,,A*4C
$GPGGA,233958.000,4308.3954,N,07725.5857,W,1,06,1.81,147.1,M,-34.4,M,,*57
$GPRMC,233958.250,A,4308.3936,N,07725.5859,W,27.04,184.03,010823,,,A*4C
$GPGGA,233958.500,4308.3917,N,07725.5860,W,1,06,1.81,147.1,M,-34.4,M,,*51
$GPRMC,233958.750,A,4308.3899,N,07725.5861,W,26.85,183.09,010823,,,A*43
$GPGGA,233959.000,4308.3880,N,07725.5862,W,1,06,1.81,147.2,M,-34.4,M,,*5B
$GPRMC,233959.250,A,4308.3861,N,07725.5863,W,26.78,182.39,010823,,,A*42
$GPGGA,233959.500,4308.3842,N,07725.5864,W,1,06,1.87,147.4,M,-34.4,M,,*56
$GPRMC,233959.750,A,4308.3823,N,07725.5865,W,26.35,181.67,010823,,,A*46
$GPGGA,234000.000,4308.3804,N,07725.5866,W,1,06,1.81,147.5,M,-34.4,M,,*56
$GPRMC,234000.250,A,4308.3785,N,07725.5868,W,26.37,181.18,010823,,,A*45
$GPGGA,234000.500,4308.3765,N,07725.5870,W,1,06,1.87,147.6,M,-34.4,M,,*59
$GPRMC,234000.750,A,4308.3746,N,07725.5871,W,26.41,181.48,010823,,,A*43
$GPGGA,234001.000,4308.3727,N,07725.5873,W,1,06,1.87,147.7,M,-34.4,M,,*59
$GPRMC,234001.250,A,4308.3708,N,07725.5874,W,26.63,181.70,010823,,,A*43
$GPGGA,234001.500,4308.3688,N,07725.5876,W,1,06,1.87,147.8,M,-34.4,M,,*52
$GPRMC,234001.750,A,4308.3668,N,07725.5877,W,26.73,181.67,010823,,,A*45
$GPGGA,234002.000,4308.3648,N,07725.5878,W,1,06,1.81,147.8,M,-34.4,M,,*50
$GPRMC,234002.250,A,4308.3629,N,07725.5879,W,26.83,181.75,010823,,,A*44
$GPGGA,234002.500,4308.3609,N,07725.5880,W,1,06,1.87,147.8,M,-34.4,M,,*51
$GPRMC,234002.750,A,4308.3590,N,07725.5881,W,26.85,181.82,010823,,,A*49
$GPGGA,234003.000,4308.3571,N,07725.5882,W,1,06,1.81,147.9,M,-34.3,M,,*5B
$GPRMC,234003.250,A,4308.3552,N,07725.5884,W,26.89,182.06,010823,,,A*45
$GPGGA,234003.500,4308.3532,N,07725.5885,W,1,06,1.81,147.9,M,-34.3,M,,*5E
$GPRMC,234003.750,A,4308.3513,N,07725.5886,W,27.10,181.73,010823,,,A*47
$GPGGA,234004.000,4308.3494,N,07725.5886,W,1,06,1.81,147.9,M,-34.3,M,,*52
$GPRMC,234004.250,A,4308.3475,N,07725.5886,W,27.02,181.20,010823,,,A*41
$GPGGA,234004.500,4308.3456,N,07725.5887,W,1,06,1.87,147.8,M,-34.3,M,,*5F
$GPRMC,234004.750,A,4308.3436,N,07725.5887,W,27.07,181.07,010823,,,A*42
$GPGGA,234005.000,4308.3417,N,07725.5888,W,1,06,1.81,147.8,M,-34.3,M,,*57
$GPRMC,234005.250,A,4308.3398,N,07725.5888,W,27.47,180.71,010823,,,A*4E
$GPGGA,234005.500,4308.3378,N,07725.5888,W,1,06,1.87,147.8,M,-34.3,M,,*5A
$GPRMC,234005.750,A,4308.3359,N,07725.5889,W,27.51,180.32,010823,,,A*47
$GPGGA,234006.000,4308.3339,N,07725.5889,W,1,06,1.81,147.9,M,-34.3,M,,*5F
$GPRMC,234006.250,A,4308.3319,N,07725.5890,W,27.94,180.90,010823,,,A*4C
$GPGGA,234006.500,4308.3300,N,07725.5891,W,1,06,1.87,147.9,M,-34.3,M,,*5F
$GPRMC,234006.750,A,4308.3280,N,07725.5892,W,28.01,181.45,010823,,,A*40
$GPGGA,234007.000,4308.3261,N,07725.5893,W,1,06,1.81,147.9,M,-34.3,M,,*59
$GPRMC,234007.250,A,4308.3242,N,07725.5893,W,28.03,181.63,010823,,,A*4D
$GPGGA,234007.500,4308.3223,N,07725.5894,W,1,06,1.87,148.0,M,-34.3,M,,*5D
$GPRMC,234007.750,A,4308.3204,N,07725.5894,W,27.66,181.24,010823,,,A*42
$GPGGA,234008.000,4308.3185,N,07725.5894,W,1,06,1.81,148.0,M,-34.3,M,,*5E
$GPRMC,234008.250,A,4308.3166,N,07725.5895,W,27.42,181.11,010823,,,A*4E
$GPGGA,234008.500,4308.3147,N,07725.5895,W,1,06,1.81,148.0,M,-34.3,M,,*54
$GPRMC,234008.750,A,4308.3128,N,07725.5895,W,27.36,181.16,010823,,,A*45
$GPGGA,234009.000,4308.3109,N,07725.5896,W,1,06,1.81,148.0,M,-34.3,M,,*59
$GPRMC,234009.250,A,4308.3091,N,07725.5897,W,26.99,181.82,010823,,,A*49
$GPGGA,234009.500,4308.3072,N,07725.5898,W,1,06,1.81,148.1,M,-34.3,M,,*5E
$GPRMC,234009.750,A,4308.3054,N,07725.5898,W,26.82,181.62,010823,,,A*4E
$GPGGA,234010.000,4308.3036,N,07725.5898,W,1,06,1.81,148.1,M,-34.3,M,,*53
$GPRMC,234010.250,A,4308.3017,N,07725.5899,W,26.95,181.65,010823,,,A*44
$GPGGA,234010.500,4308.2998,N,07725.5901,W,1,06,1.81,148.1,M,-34.3,M,,*5B
$GPRMC,234010.750,A,4308.2980,N,07725.5901,W,27.17,182.41,010823,,,A*49
$GPGGA,234011.000,4308.2961,N,07725.5902,W,1,06,1.81,148.1,M,-34.3,M,,*5A
$GPRMC,234011.250,A,4308.2943,N,07725.5902,W,26.80,182.31,010823,,,A*49
$GPGGA,234011.500,4308.2925,N,07725.5903,W,1,06,1.81,148.1,M,-34.3,M,,*5E
$GPRMC,234011.750,A,4308.2907,N,07725.5903,W,26.34,182.08,010823,,,A*48
$GPGGA,234012.000,4308.2889,N,07725.5904,W,1,06,1.81,148.1,M,-34.3,M,,*58
$GPRMC,234012.250,A,4308.2870,N,07725.5904,W,26.22,181.94,010823,,,A*49
$GPGGA,234012.500,4308.2853,N,07725.5904,W,1,06,1.87,148.1,M,-34.3,M,,*5C
$GPRMC,234012.750,A,4308.2836,N,07725.5903,W,25.77,180.51,010823,,,A*42
$GPGGA,234013.000,4308.2819,N,07725.5902,W,1,06,1.81,148.1,M,-34.3,M,,*56
$GPRMC,234013.250,A,4308.2801,N,07725.5902,W,25.35,180.19,010823,,,A*49
$GPGGA,234013.500,4308.2783,N,07725.5902,W,1,06,1.87,148.1,M,-34.3,M,,*59
$GPRMC,234013.750,A,4308.2766,N,07725.5903,W,25.33,180.81,010823,,,A*44
$GPGGA,234014.000,4308.2748,N,07725.5903,W,1,06,1.81,148.1,M,-34.3,M,,*5B
$GPRMC,234014.250,A,4308.2731,N,07725.5904,W,25.24,181.23,010823,,,A*4C
$GPGGA,234014.500,4308.2714,N,07725.5904,W,1,06,1.87,148.1,M,-34.3,M,,*56
$GPRMC,234014.750,A,4308.2696,N,07725.5905,W,25.00,182.10,010823,,,A*41
$GPGGA,234015.000,4308.2680,N,07725.5906,W,1,06,1.87,148.1,M,-34.3,M,,*5C
$GPRMC,234015.250,A,4308.2663,N,07725.5906,W,24.82,181.77,010823,,,A*45
$GPGGA,234015.500,4308.2646,N,07725.5907,W,1,06,1.87,148.1,M,-34.3,M,,*52
$GPRMC,234015.750,A,4308.2629,N,07725.5907,W,24.62,180.85,010823,,,A*4D
$GPGGA,234016.000,4308.2612,N,07725.5907,W,1,06,1.87,148.1,M,-34.3,M,,*55
$GPRMC,234016.250,A,4308.2595,N,07725.5907,W,24.51,180.41,010823,,,A*47
$GPGGA,234016.500,4308.2578,N,07725.5907,W,1,06,1.87,148.0,M,-34.3,M,,*5E
$GPRMC,234016.750,A,4308.2561,N,07725.5908,W,24.38,181.04,010823,,,A*49
$GPGGA,234017.000,4308.2545,N,07725.5908,W,1,06,1.87,148.0,M,-34.3,M,,*5B
$GPRMC,234017.250,A,4308.2528,N,07725.5907,W,24.28,181.24,010823,,,A*4C
$GPGGA,234017.500,4308.2512,N,07725.5907,W,1,06,1.87,148.0,M,-34.3,M,,*53
$GPRMC,234017.750,A,4308.2495,N,07725.5907,W,24.03,181.52,010823,,,A*46
$GPGGA,234018.000,4308.2479,N,07725.5908,W,1,06,1.87,148.1,M,-34.3,M,,*5B
$GPRMC,234018.250,A,4308.2463,N,07725.5908,W,23.91,181.58,010823,,,A*4C
$GPGGA,234018.500,4308.2446,N,07725.5909,W,1,06,1.87,148.1,M,-34.3,M,,*53
$GPRMC,234018.750,A,4308.2429,N,07725.5910,W,23.76,182.04,010823,,,A*4D
$GPGGA,234019.000,4308.2412,N,07725.5911,W,1,06,1.81,148.1,M,-34.3,M,,*59
$GPRMC,234019.250,A,4308.2395,N,07725.5912,W,24.01,182.39,010823,,,A*42
$GPGGA,234019.500,4308.2377,N,07725.5914,W,1,06,1.87,148.1,M,-34.3,M,,*5B
$GPRMC,234019.750,A,4308.2360,N,07725.5915,W,24.36,182.86,010823,,,A*4A
$GPGGA,234020.000,4308.2342,N,07725.5917,W,1,06,1.81,148.0,M,-34.3,M,,*56
