$GPRMC,210434.000,A,4308.2974,N,07726.2693,W,0.36,343.79,140823,,,A*72
$GPGGA,210434.250,4308.2976,N,07726.2692,W,1,04,3.38,152.9,M,-34.4,M,,*5A
$GPRMC,210434.500,A,4308.2979,N,07726.2691,W,0.45,342.42,140823,,,A*75
$GPGGA,210434.750,4308.2982,N,07726.2690,W,1,04,3.38,153.4,M,-34.4,M,,*5A
$GPRMC,210435.000,A,4308.2984,N,07726.2690,W,0.32,328.19,140823,,,A*70
$GPGGA,210435.250,4308.2986,N,07726.2690,W,1,04,3.37,153.7,M,-34.4,M,,*56
$GPRMC,210435.500,A,4308.2988,N,07726.2689,W,0.23,307.60,140823,,,A*72
$GPGGA,210435.750,4308.2989,N,07726.2689,W,1,04,3.37,154.0,M,-34.4,M,,*54
$GPRMC,210436.000,A,4308.2990,N,07726.2689,W,0.14,273.93,140823,,,A*77
$GPGGA,210436.250,4308.2991,N,07726.2688,W,1,04,3.37,154.4,M,-34.4,M,,*5E
$GPRMC,210436.500,A,4308.2993,N,07726.2687,W,0.06,289.80,140823,,,A*7B
$GPGGA,210436.750,4308.2996,N,07726.2686,W,1,04,3.37,154.9,M,-34.4,M,,*5F
$GPRMC,210437.000,A,4308.2998,N,07726.2685,W,0.06,333.76,140823,,,A*7F
$GPGGA,210437.250,4308.2999,N,07726.2685,W,1,04,3.37,155.2,M,-34.4,M,,*5D
$GPRMC,210437.500,A,4308.3000,N,07726.2684,W,0.10,27.88,140823,,,A*42
$GPGGA,210437.750,4308.3000,N,07726.2683,W,1,04,3.37,155.4,M,-34.4,M,,*50
$GPRMC,210438.000,A,4308.3002,N,07726.2682,W,0.11,58.40,140823,,,A*41
$GPGGA,210438.250,4308.3004,N,07726.2682,W,1,04,3.37,155.6,M,-34.4,M,,*5D
$GPRMC,210438.500,A,4308.3006,N,07726.2681,W,0.32,26.42,140823,,,A*49
$GPGGA,210438.750,4308.3008,N,07726.2680,W,1,04,3.37,155.8,M,-34.4,M,,*58
$GPRMC,210439.000,A,4308.3009,N,07726.2680,W,0.41,20.85,140823,,,A*4A
$GPGGA,210439.250,4308.3011,N,07726.2679,W,1,04,3.37,155.9,M,-34.4,M,,*53
$GPRMC,210439.500,A,4308.3013,N,07726.2678,W,0.57,24.34,140823,,,A*4A
$GPGGA,210439.750,4308.3017,N,07726.2676,W,1,04,3.37,156.2,M,-34.4,M,,*57
$GPRMC,210440.000,A,4308.3020,N,07726.2676,W,0.80,16.89,140823,,,A*42
$GPGGA,210440.250,4308.3025,N,07726.2675,W,1,04,3.37,156.4,M,-34.4,M,,*58
$GPRMC,210440.500,A,4308.3027,N,07726.2674,W,1.00,6.68,140823,,,A*75
$GPGGA,210440.750,4308.3029,N,07726.2674,W,1,04,5.20,156.6,M,-34.4,M,,*52
$GPRMC,210441.000,A,4308.3032,N,07726.2673,W,0.97,0.23,140823,,,A*74
$GPGGA,210441.250,4308.3034,N,07726.2671,W,1,04,5.20,156.8,M,-34.4,M,,*51
$GPRMC,210441.500,A,4308.3037,N,07726.2670,W,1.04,2.56,140823,,,A*7C
$GPGGA,210441.750,4308.3040,N,07726.2669,W,1,04,5.20,156.9,M,-34.4,M,,*5F
$GPRMC,210442.000,A,4308.3043,N,07726.2667,W,1.16,4.18,140823,,,A*70
$GPGGA,210442.250,4308.3046,N,07726.2666,W,1,04,5.20,156.9,M,-34.4,M,,*50
$GPRMC,210442.500,A,4308.3048,N,07726.2665,W,1.20,4.28,140823,,,A*7A
$GPGGA,210442.750,4308.3051,N,07726.2664,W,1,04,5.20,157.0,M,-34.4,M,,*59
$GPRMC,210443.000,A,4308.3054,N,07726.2663,W,1.24,6.12,140823,,,A*7A
$GPGGA,210443.250,4308.3057,N,07726.2662,W,1,04,5.19,157.2,M,-34.4,M,,*55
$GPRMC,210443.500,A,4308.3060,N,07726.2661,W,1.22,3.68,140823,,,A*74
$GPGGA,210443.750,4308.3062,N,07726.2660,W,1,04,5.19,157.4,M,-34.4,M,,*52
$GPRMC,210444.000,A,4308.3064,N,07726.2660,W,1.22,2.60,140823,,,A*7A
$GPGGA,210444.250,4308.3066,N,07726.2659,W,1,04,5.19,157.5,M,-34.4,M,,*5F
$GPRMC,210444.500,A,4308.3068,N,07726.2658,W,1.29,5.09,140823,,,A*7B
$GPGGA,210444.750,4308.3070,N,07726.2658,W,1,04,5.19,157.6,M,-34.4,M,,*5F
$GPRMC,210445.000,A,4308.3071,N,07726.2657,W,1.35,7.92,140823,,,A*75
$GPGGA,210445.250,4308.3073,N,07726.2656,W,1,04,5.19,157.6,M,-34.4,M,,*56
$GPRMC,210445.500,A,4308.3074,N,07726.2656,W,1.40,11.32,140823,,,A*4B
$GPGGA,210445.750,4308.3075,N,07726.2655,W,1,04,5.19,157.5,M,-34.4,M,,*55
$GPRMC,210446.000,A,4308.3076,N,07726.2655,W,1.42,13.71,140823,,,A*4B
$GPGGA,210446.250,4308.3077,N,07726.2654,W,1,04,5.19,157.3,M,-34.4,M,,*56
$GPRMC,210446.500,A,4308.3077,N,07726.2654,W,1.44,15.76,140823,,,A*49
$GPGGA,210446.750,4308.3078,N,07726.2654,W,1,04,3.37,157.2,M,-34.4,M,,*57
$GPRMC,210447.000,A,4308.3079,N,07726.2654,W,1.43,11.66,140823,,,A*41
$GPGGA,210447.250,4308.3080,N,07726.2654,W,1,04,5.18,157.0,M,-34.4,M,,*5D
$GPRMC,210447.500,A,4308.3080,N,07726.2653,W,1.43,14.24,140823,,,A*46
$GPGGA,210447.750,4308.3081,N,07726.2653,W,1,04,5.18,156.8,M,-34.4,M,,*57
$GPRMC,210448.000,A,4308.3082,N,07726.2652,W,1.42,14.51,140823,,,A*4C
$GPGGA,210448.250,4308.3082,N,07726.2652,W,1,04,5.18,156.7,M,-34.4,M,,*50
$GPRMC,210448.500,A,4308.3083,N,07726.2651,W,1.43,15.47,140823,,,A*4C
$GPGGA,210448.750,4308.3083,N,07726.2651,W,1,03,10.21,156.6,M,-34.4,M,,*6F
$GPRMC,210449.000,A,4308.3084,N,07726.2650,W,1.44,17.52,140823,,,A*4F
$GPGGA,210449.250,4308.3085,N,07726.2649,W,1,03,10.20,156.5,M,-34.4,M,,*66
$GPRMC,210449.500,A,4308.3085,N,07726.2649,W,1.43,16.50,140823,,,A*47
$GPGGA,210449.750,4308.3086,N,07726.2649,W,1,03,10.20,156.3,M,-34.4,M,,*66
$GPRMC,210450.000,V,,,,,1.41,12.88,140823,,,E*7F
$GPGGA,210450.250,4308.3087,N,07726.2648,W,6,03,99.99,156.2,M,-34.4,M,,*6E
$GPRMC,210450.250,V,,,,,1.43,15.90,140823,,,E*74
$GPGGA,210450.500,4308.3088,N,07726.2647,W,1,04,3.36,156.1,M,-34.4,M,,*59
$GPRMC,210450.750,A,4308.3089,N,07726.2646,W,1.45,18.55,140823,,,A*46
$GPGGA,210451.000,4308.3090,N,07726.2646,W,1,04,3.36,156.0,M,-34.4,M,,*54
$GPRMC,210451.250,A,4308.3091,N,07726.2645,W,1.45,18.73,140823,,,A*4C
$GPGGA,210451.500,4308.3091,N,07726.2643,W,1,04,3.36,156.0,M,-34.4,M,,*55
$GPRMC,210451.750,A,4308.3092,N,07726.2643,W,1.46,21.85,140823,,,A*4C
$GPGGA,210452.000,4308.3093,N,07726.2642,W,1,04,3.36,155.9,M,-34.4,M,,*5A
$GPRMC,210452.250,A,4308.3093,N,07726.2641,W,1.44,21.31,140823,,,A*44
$GPGGA,210452.500,4308.3094,N,07726.2641,W,1,04,3.37,155.8,M,-34.4,M,,*5B
$GPRMC,210452.750,A,4308.3095,N,07726.2641,W,1.38,16.76,140823,,,A*4B
$GPGGA,210453.000,4308.3095,N,07726.2640,W,1,04,3.37,155.7,M,-34.4,M,,*50
$GPRMC,210453.250,A,4308.3096,N,07726.2639,W,1.34,16.58,140823,,,A*43
$GPGGA,210453.500,4308.3097,N,07726.2639,W,1,03,10.15,155.6,M,-34.4,M,,*6D
$GPRMC,210453.750,A,4308.3098,N,07726.2638,W,1.31,16.76,140823,,,A*40
$GPGGA,210454.000,4308.3099,N,07726.2637,W,1,03,10.14,155.6,M,-34.4,M,,*6E
$GPRMC,210454.250,A,4308.3099,N,07726.2637,W,1.30,15.59,140823,,,A*43
$GPGGA,210454.500,4308.3100,N,07726.2636,W,1,03,10.13,155.5,M,-34.4,M,,*6F
$GPRMC,210454.750,V,,,,,1.29,13.13,140823,,,E*74
$GPGGA,210455.000,4308.3103,N,07726.2635,W,6,03,99.99,155.4,M,-34.4,M,,*6E
$GPRMC,210455.000,V,,,,,1.30,14.18,140823,,,E*73
$GPGGA,210455.250,4308.3104,N,07726.2634,W,1,04,5.16,155.4,M,-34.4,M,,*5D
$GPRMC,210455.500,A,4308.3105,N,07726.2634,W,1.31,14.85,140823,,,A*46
$GPGGA,210455.750,4308.3106,N,07726.2633,W,1,04,5.16,155.3,M,-34.4,M,,*5A
$GPRMC,210456.000,A,4308.3108,N,07726.2633,W,1.32,13.17,140823,,,A*45
$GPGGA,210456.250,4308.3109,N,07726.2632,W,1,04,5.16,155.3,M,-34.4,M,,*52
$GPRMC,210456.500,A,4308.3110,N,07726.2632,W,1.31,10.35,140823,,,A*48
$GPGGA,210456.750,4308.3111,N,07726.2632,W,1,04,5.16,155.3,M,-34.4,M,,*5E
$GPRMC,210457.000,A,4308.3113,N,07726.2632,W,1.32,7.24,140823,,,A*7A
$GPGGA,210457.250,4308.3114,N,07726.2632,W,1,04,5.16,155.3,M,-34.4,M,,*5F
$GPRMC,210457.500,A,4308.3115,N,07726.2631,W,1.31,5.69,140823,,,A*72
$GPGGA,210457.750,4308.3117,N,07726.2631,W,1,04,5.15,155.3,M,-34.4,M,,*59
$GPRMC,210458.000,A,4308.3118,N,07726.2631,W,1.30,4.10,140823,,,A*7B
$GPGGA,210458.250,4308.3120,N,07726.2631,W,1,04,5.16,155.3,M,-34.4,M,,*54
$GPRMC,210458.500,A,4308.3121,N,07726.2631,W,1.31,2.73,140823,,,A*76
$GPGGA,210458.750,4308.3123,N,07726.2630,W,1,04,5.15,155.3,M,-34.4,M,,*50
$GPRMC,210459.000,A,4308.3124,N,07726.2629,W,1.31,3.55,140823,,,A*7B
$GPGGA,210459.250,4308.3125,N,07726.2629,W,1,04,5.15,155.4,M,-34.4,M,,*5D
$GPRMC,210459.500,A,4308.3127,N,07726.2628,W,1.31,6.59,140823,,,A*75
$GPGGA,210459.750,4308.3128,N,07726.2627,W,1,04,5.14,155.4,M,-34.4,M,,*5A
$GPRMC,210500.000,A,4308.3129,N,07726.2627,W,1.30,6.15,140823,,,A*75
$GPGGA,210500.250,4308.3130,N,07726.2626,W,1,04,5.15,155.5,M,-34.4,M,,*5A
$GPRMC,210500.500,A,4308.3131,N,07726.2626,W,1.30,5.31,140823,,,A*7D
$GPGGA,210500.750,4308.3133,N,07726.2625,W,1,04,5.15,155.6,M,-34.4,M,,*5C
$GPRMC,210501.000,A,4308.3134,N,07726.2625,W,1.29,5.15,140823,,,A*71
$GPGGA,210501.250,4308.3135,N,07726.2625,W,1,04,5.14,155.6,M,-34.4,M,,*5F
$GPRMC,210501.500,A,4308.3136,N,07726.2624,W,1.28,5.23,140823,,,A*73
$GPGGA,210501.750,4308.3136,N,07726.2624,W,1,04,5.14,155.7,M,-34.4,M,,*59
$GPRMC,210502.000,A,4308.3136,N,07726.2623,W,1.25,3.22,140823,,,A*78
$GPGGA,210502.250,4308.3128,N,07726.2623,W,1,06,3.14,155.7,M,-34.4,M,,*53
$GPRMC,210502.500,A,4308.3118,N,07726.2622,W,0.97,9.74,140823,,,A*71
$GPGGA,210502.750,4308.3111,N,07726.2621,W,1,06,3.14,155.7,M,-34.4,M,,*5E
$GPRMC,210503.000,A,4308.3108,N,07726.2621,W,0.87,8.91,140823,,,A*7C
$GPGGA,210503.250,4308.3101,N,07726.2620,W,1,06,3.14,155.6,M,-34.4,M,,*5B
$GPRMC,210503.500,A,4308.3099,N,07726.2620,W,0.74,12.85,140823,,,A*43
$GPGGA,210503.750,4308.3100,N,07726.2619,W,1,06,3.13,155.5,M,-34.4,M,,*51
$GPRMC,210504.000,A,4308.3100,N,07726.2619,W,0.91,14.34,140823,,,A*4D
$GPGGA,210504.250,4308.3098,N,07726.2618,W,1,06,3.13,155.4,M,-34.4,M,,*53
$GPRMC,210504.500,A,4308.3098,N,07726.2618,W,0.96,14.23,140823,,,A*48
$GPGGA,210504.750,4308.3101,N,07726.2617,W,1,06,3.13,155.4,M,-34.4,M,,*58
$GPRMC,210505.000,A,4308.3104,N,07726.2615,W,1.31,12.54,140823,,,A*4F
$GPGGA,210505.250,4308.3109,N,07726.2613,W,1,06,3.13,155.9,M,-34.4,M,,*5D
$GPRMC,210505.500,A,4308.3112,N,07726.2612,W,1.45,9.16,140823,,,A*75
$GPGGA,210505.750,4308.3115,N,07726.2611,W,1,06,3.13,156.3,M,-34.4,M,,*5E
$GPRMC,210506.000,A,4308.3117,N,07726.2610,W,1.46,4.49,140823,,,A*70
$GPGGA,210506.250,4308.3119,N,07726.2609,W,1,06,3.13,156.6,M,-34.4,M,,*58
$GPRMC,210506.500,A,4308.3121,N,07726.2608,W,1.54,2.21,140823,,,A*72
$GPGGA,210506.750,4308.3123,N,07726.2608,W,1,06,3.13,156.8,M,-34.4,M,,*5B
$GPRMC,210507.000,A,4308.3124,N,07726.2609,W,1.54,357.50,140823,,,A*77
$GPGGA,210507.250,4308.3125,N,07726.2609,W,1,06,3.13,156.9,M,-34.4,M,,*59
$GPRMC,210507.500,A,4308.3126,N,07726.2609,W,1.58,354.79,140823,,,A*74
$GPGGA,210507.750,4308.3129,N,07726.2609,W,1,06,3.13,157.0,M,-34.4,M,,*58
$GPRMC,210508.000,A,4308.3130,N,07726.2610,W,1.67,352.59,140823,,,A*79
$GPGGA,210508.250,4308.3130,N,07726.2610,W,1,06,3.13,157.0,M,-34.4,M,,*52
$GPRMC,210508.500,A,4308.3131,N,07726.2611,W,1.70,348.76,140823,,,A*7C
$GPGGA,210508.750,4308.3129,N,07726.2612,W,1,06,3.13,157.0,M,-34.4,M,,*5D
$GPRMC,210509.000,A,4308.3129,N,07726.2613,W,1.55,343.38,140823,,,A*75
$GPGGA,210509.250,4308.3128,N,07726.2614,W,1,06,2.15,157.0,M,-34.4,M,,*59
$GPRMC,210509.500,A,4308.3127,N,07726.2615,W,1.53,336.85,140823,,,A*7A
$GPGGA,210509.750,4308.3127,N,07726.2617,W,1,05,2.26,157.1,M,-34.4,M,,*52
$GPRMC,210510.000,A,4308.3127,N,07726.2617,W,1.49,333.18,140823,,,A*7F
$GPGGA,210510.250,4308.3127,N,07726.2618,W,1,06,2.15,157.0,M,-34.4,M,,*52
$GPRMC,210510.500,A,4308.3127,N,07726.2619,W,1.50,332.47,140823,,,A*77
$GPGGA,210510.750,4308.3128,N,07726.2620,W,1,05,2.26,157.0,M,-34.4,M,,*50
$GPRMC,210511.000,A,4308.3128,N,07726.2620,W,1.47,332.15,140823,,,A*77
$GPGGA,210511.250,4308.3127,N,07726.2620,W,1,05,2.26,157.0,M,-34.4,M,,*5B
$GPRMC,210511.500,A,4308.3125,N,07726.2620,W,1.20,333.32,140823,,,A*7A
$GPGGA,210511.750,4308.3123,N,07726.2620,W,1,05,2.26,157.1,M,-34.4,M,,*5B
$GPRMC,210512.000,A,4308.3123,N,07726.2619,W,0.91,337.15,140823,,,A*7A
$GPGGA,210512.250,4308.3121,N,07726.2618,W,1,05,2.26,157.1,M,-34.4,M,,*54
$GPRMC,210512.500,A,4308.3119,N,07726.2617,W,0.50,353.10,140823,,,A*72
$GPGGA,210512.750,4308.3116,N,07726.2616,W,1,05,3.14,157.2,M,-34.4,M,,*58
$GPRMC,210513.000,A,4308.3116,N,07726.2613,W,0.94,84.35,140823,,,A*4B
$GPGGA,210513.250,4308.3116,N,07726.2607,W,1,05,2.26,156.9,M,-34.4,M,,*56
$GPRMC,210513.500,A,4308.3114,N,07726.2600,W,3.54,95.95,140823,,,A*4B
$GPGGA,210513.750,4308.3112,N,07726.2593,W,1,05,2.26,156.5,M,-34.4,M,,*55
$GPRMC,210514.000,A,4308.3109,N,07726.2587,W,5.50,98.07,140823,,,A*4D
$GPGGA,210514.250,4308.3105,N,07726.2580,W,1,05,3.14,156.0,M,-34.4,M,,*56
$GPRMC,210514.500,A,4308.3103,N,07726.2571,W,7.82,97.75,140823,,,A*4C
$GPGGA,210514.750,4308.3101,N,07726.2563,W,1,06,3.12,155.5,M,-34.4,M,,*59
$GPRMC,210515.000,A,4308.3099,N,07726.2555,W,8.62,96.26,140823,,,A*4A
$GPGGA,210515.250,4308.3098,N,07726.2546,W,1,06,3.12,155.4,M,-34.4,M,,*5A
$GPRMC,210515.500,A,4308.3096,N,07726.2536,W,9.85,97.20,140823,,,A*4A
$GPGGA,210515.750,4308.3096,N,07726.2525,W,1,06,3.12,155.1,M,-34.4,M,,*51
$GPRMC,210516.000,A,4308.3095,N,07726.2514,W,10.90,96.52,140823,,,A*77
$GPGGA,210516.250,4308.3094,N,07726.2503,W,1,06,3.12,154.7,M,-34.4,M,,*56
$GPRMC,210516.500,A,4308.3093,N,07726.2491,W,11.59,95.77,140823,,,A*78
$GPGGA,210516.750,4308.3092,N,07726.2480,W,1,06,3.12,154.4,M,-34.4,M,,*5C
$GPRMC,210517.000,A,4308.3091,N,07726.2467,W,12.26,94.29,140823,,,A*76
$GPGGA,210517.250,4308.3090,N,07726.2455,W,1,06,2.15,154.1,M,-34.4,M,,*51
$GPRMC,210517.500,A,4308.3090,N,07726.2442,W,12.82,92.72,140823,,,A*73
$GPGGA,210517.750,4308.3089,N,07726.2429,W,1,06,3.12,153.7,M,-34.4,M,,*50
$GPRMC,210518.000,A,4308.3089,N,07726.2416,W,13.38,91.94,140823,,,A*7B
$GPGGA,210518.250,4308.3088,N,07726.2402,W,1,06,2.15,153.5,M,-34.4,M,,*56
$GPRMC,210518.500,A,4308.3087,N,07726.2388,W,13.82,91.65,140823,,,A*7F
$GPGGA,210518.750,4308.3086,N,07726.2374,W,1,06,3.11,153.3,M,-34.4,M,,*58
$GPRMC,210519.000,A,4308.3086,N,07726.2360,W,14.08,91.65,140823,,,A*79
$GPGGA,210519.250,4308.3085,N,07726.2346,W,1,06,2.15,153.1,M,-34.4,M,,*59
$GPRMC,210519.500,A,4308.3084,N,07726.2330,W,14.80,91.67,140823,,,A*79
$GPGGA,210519.750,4308.3083,N,07726.2315,W,1,06,3.11,152.9,M,-34.4,M,,*50
$GPRMC,210520.000,A,4308.3083,N,07726.2300,W,15.28,91.90,140823,,,A*79
$GPGGA,210520.250,4308.3092,N,07726.2275,W,1,07,1.47,153.6,M,-34.4,M,,*56
$GPRMC,210520.500,A,4308.3095,N,07726.2255,W,16.96,89.47,140823,,,A*7F
$GPGGA,210520.750,4308.3098,N,07726.2236,W,1,07,1.85,154.4,M,-34.4,M,,*55
$GPRMC,210521.000,A,4308.3100,N,07726.2217,W,17.34,89.36,140823,,,A*7F
$GPGGA,210521.250,4308.3103,N,07726.2198,W,1,07,1.85,154.8,M,-34.4,M,,*59
$GPRMC,210521.500,A,4308.3104,N,07726.2180,W,17.64,87.65,140823,,,A*7E
$GPGGA,210521.750,4308.3104,N,07726.2161,W,1,07,1.85,155.2,M,-34.4,M,,*56
$GPRMC,210522.000,A,4308.3105,N,07726.2143,W,17.89,88.41,140823,,,A*7C
$GPGGA,210522.250,4308.3105,N,07726.2125,W,1,07,1.85,155.3,M,-34.4,M,,*50
$GPRMC,210522.500,A,4308.3105,N,07726.2106,W,18.47,89.37,140823,,,A*75
$GPGGA,210522.750,4308.3105,N,07726.2088,W,1,07,1.85,155.4,M,-34.4,M,,*54
$GPRMC,210523.000,A,4308.3105,N,07726.2069,W,19.02,89.29,140823,,,A*76
$GPGGA,210523.250,4308.3105,N,07726.2050,W,1,07,1.47,155.5,M,-34.4,M,,*5A
$GPRMC,210523.500,A,4308.3106,N,07726.2031,W,19.43,89.01,140823,,,A*72
$GPGGA,210523.750,4308.3106,N,07726.2011,W,1,07,1.85,155.5,M,-34.4,M,,*57
$GPRMC,210524.000,A,4308.3107,N,07726.1992,W,19.73,88.16,140823,,,A*76
$GPGGA,210524.250,4308.3108,N,07726.1972,W,1,07,1.47,155.6,M,-34.4,M,,*59
$GPRMC,210524.500,A,4308.3108,N,07726.1953,W,19.98,87.41,140823,,,A*79
$GPGGA,210524.750,4308.3108,N,07726.1933,W,1,07,1.85,155.6,M,-34.4,M,,*57
$GPRMC,210525.000,A,4308.3108,N,07726.1913,W,20.27,87.95,140823,,,A*7E
$GPGGA,210525.250,4308.3108,N,07726.1893,W,1,07,1.47,155.6,M,-34.4,M,,*56
$GPRMC,210525.500,A,4308.3108,N,07726.1873,W,20.29,88.25,140823,,,A*76
$GPGGA,210525.750,4308.3108,N,07726.1853,W,1,07,1.85,155.6,M,-34.4,M,,*51
$GPRMC,210526.000,A,4308.3109,N,07726.1833,W,20.50,88.10,140823,,,A*7D
$GPGGA,210526.250,4308.3109,N,07726.1813,W,1,07,1.85,155.7,M,-34.4,M,,*53
$GPRMC,210526.500,A,4308.3109,N,07726.1793,W,20.72,88.45,140823,,,A*7D
$GPGGA,210526.750,4308.3110,N,07726.1772,W,1,07,1.85,155.9,M,-34.4,M,,*58
$GPRMC,210527.000,A,4308.3110,N,07726.1752,W,21.01,88.96,140823,,,A*77
$GPGGA,210527.250,4308.3110,N,07726.1731,W,1,07,1.85,155.9,M,-34.4,M,,*5B
$GPRMC,210527.500,A,4308.3110,N,07726.1710,W,21.41,90.01,140823,,,A*77
$GPGGA,210527.750,4308.3111,N,07726.1689,W,1,07,1.85,155.8,M,-34.4,M,,*5C
$GPRMC,210528.000,A,4308.3111,N,07726.1668,W,21.71,90.38,140823,,,A*7B
$GPGGA,210528.250,4308.3111,N,07726.1647,W,1,07,1.85,155.9,M,-34.4,M,,*55
$GPRMC,210528.500,A,4308.3111,N,07726.1626,W,21.71,90.39,140823,,,A*75
$GPGGA,210528.750,4308.3111,N,07726.1605,W,1,07,1.85,155.9,M,-34.4,M,,*56
$GPRMC,210529.000,A,4308.3113,N,07726.1585,W,21.52,89.26,140823,,,A*7E
$GPGGA,210529.250,4308.3114,N,07726.1565,W,1,07,1.85,155.8,M,-34.4,M,,*53
$GPRMC,210529.500,A,4308.3116,N,07726.1545,W,21.29,87.31,140823,,,A*76
$GPGGA,210529.750,4308.3117,N,07726.1525,W,1,07,1.85,155.6,M,-34.4,M,,*5F
$GPRMC,210530.000,A,4308.3118,N,07726.1505,W,21.20,85.66,140823,,,A*78
$GPGGA,210530.250,4308.3120,N,07726.1485,W,1,07,1.85,155.6,M,-34.4,M,,*5D
$GPRMC,210530.500,A,4308.3122,N,07726.1466,W,20.71,82.98,140823,,,A*73
$GPGGA,210530.750,4308.3125,N,07726.1447,W,1,07,1.85,155.6,M,-34.4,M,,*53
$GPRMC,210531.000,A,4308.3127,N,07726.1428,W,20.45,80.17,140823,,,A*7A
$GPGGA,210531.250,4308.3130,N,07726.1409,W,1,07,1.85,155.5,M,-34.4,M,,*5A
$GPRMC,210531.500,A,4308.3134,N,07726.1392,W,20.01,76.82,140823,,,A*7E
$GPGGA,210531.750,4308.3138,N,07726.1375,W,1,07,1.85,155.5,M,-34.4,M,,*5B
$GPRMC,210532.000,A,4308.3141,N,07726.1358,W,19.28,74.40,140823,,,A*71
$GPGGA,210532.250,4308.3146,N,07726.1341,W,1,07,1.85,155.5,M,-34.4,M,,*53
$GPRMC,210532.500,A,4308.3153,N,07726.1326,W,18.70,69.62,140823,,,A*7E
$GPGGA,210532.750,4308.3159,N,07726.1311,W,1,07,1.85,155.7,M,-34.4,M,,*5F
$GPRMC,210533.000,A,4308.3165,N,07726.1295,W,18.38,65.38,140823,,,A*79
$GPGGA,210533.250,4308.3171,N,07726.1280,W,1,07,1.85,155.7,M,-34.4,M,,*58
$GPRMC,210533.500,A,4308.3177,N,07726.1265,W,18.13,62.99,140823,,,A*75
$GPGGA,210533.750,4308.3187,N,07726.1252,W,1,07,1.85,155.8,M,-34.4,M,,*54
$GPRMC,210534.000,A,4308.3195,N,07726.1239,W,17.62,56.09,140823,,,A*75
$GPGGA,210534.250,4308.3204,N,07726.1226,W,1,07,1.47,155.9,M,-34.4,M,,*52
$GPRMC,210534.500,A,4308.3214,N,07726.1213,W,17.80,49.78,140823,,,A*76
$GPGGA,210534.750,4308.3226,N,07726.1200,W,1,06,1.64,156.0,M,-34.4,M,,*59
$GPRMC,210535.000,A,4308.3238,N,07726.1188,W,18.71,44.12,140823,,,A*7D
$GPGGA,210535.250,4308.3253,N,07726.1178,W,1,06,1.64,156.1,M,-34.4,M,,*52
$GPRMC,210535.500,A,4308.3266,N,07726.1167,W,19.74,35.43,140823,,,A*74
$GPGGA,210535.750,4308.3279,N,07726.1158,W,1,06,1.64,156.1,M,-34.4,M,,*5D
$GPRMC,210536.000,A,4308.3291,N,07726.1149,W,20.05,31.04,140823,,,A*7D
$GPGGA,210536.250,4308.3304,N,07726.1140,W,1,05,1.74,156.2,M,-34.4,M,,*58
$GPRMC,210536.500,A,4308.3317,N,07726.1132,W,20.16,27.51,140823,,,A*7E
$GPGGA,210536.750,4308.3331,N,07726.1124,W,1,06,1.64,156.2,M,-34.4,M,,*5B
$GPRMC,210537.000,A,4308.3344,N,07726.1117,W,20.36,24.78,140823,,,A*71
$GPGGA,210537.250,4308.3358,N,07726.1110,W,1,06,1.64,156.3,M,-34.4,M,,*56
$GPRMC,210537.500,A,4308.3372,N,07726.1105,W,20.34,20.92,140823,,,A*70
$GPGGA,210537.750,4308.3386,N,07726.1106,W,1,06,1.64,156.3,M,-34.4,M,,*57
$GPRMC,210538.000,A,4308.3400,N,07726.1104,W,19.87,12.06,140823,,,A*77
$GPGGA,210538.250,4308.3414,N,07726.1103,W,1,06,1.92,156.4,M,-34.4,M,,*5A
$GPRMC,210538.500,A,4308.3429,N,07726.1101,W,19.89,7.59,140823,,,A*4C
$GPGGA,210538.750,4308.3445,N,07726.1100,W,1,06,1.92,156.4,M,-34.4,M,,*58
$GPRMC,210539.000,A,4308.3460,N,07726.1100,W,20.71,2.88,140823,,,A*40
$GPGGA,210539.250,4308.3475,N,07726.1101,W,1,06,1.92,156.4,M,-34.4,M,,*5E
$GPRMC,210539.500,A,4308.3491,N,07726.1102,W,21.35,359.76,140823,,,A*44
$GPGGA,210539.750,4308.3507,N,07726.1103,W,1,06,1.92,156.5,M,-34.4,M,,*5C
$GPRMC,210540.000,A,4308.3522,N,07726.1104,W,21.44,358.37,140823,,,A*42
$GPGGA,210540.250,4308.3538,N,07726.1105,W,1,05,2.61,156.5,M,-34.4,M,,*51
$GPRMC,210540.500,A,4308.3554,N,07726.1106,W,21.99,357.91,140823,,,A*47
$GPGGA,210540.750,4308.3570,N,07726.1107,W,1,06,1.92,156.5,M,-34.4,M,,*56
$GPRMC,210541.000,A,4308.3585,N,07726.1108,W,22.23,358.03,140823,,,A*47
$GPGGA,210541.250,4308.3602,N,07726.1109,W,1,06,1.92,156.6,M,-34.4,M,,*59
$GPRMC,210541.500,A,4308.3618,N,07726.1109,W,22.59,358.55,140823,,,A*4A
$GPGGA,210541.750,4308.3634,N,07726.1110,W,1,06,1.92,156.7,M,-34.4,M,,*50
$GPRMC,210542.000,A,4308.3651,N,07726.1110,W,22.65,359.11,140823,,,A*47
$GPGGA,210542.250,4308.3667,N,07726.1110,W,1,06,1.92,156.7,M,-34.4,M,,*50
$GPRMC,210542.500,A,4308.3683,N,07726.1110,W,22.73,359.77,140823,,,A*4A
$GPGGA,210542.750,4308.3699,N,07726.1110,W,1,06,1.92,156.7,M,-34.4,M,,*54
$GPRMC,210543.000,A,4308.3715,N,07726.1110,W,22.85,0.21,140823,,,A*45
$GPGGA,210543.250,4308.3731,N,07726.1110,W,1,06,1.92,156.8,M,-34.4,M,,*5C
$GPRMC,210543.500,A,4308.3748,N,07726.1110,W,22.93,359.88,140823,,,A*43
$GPGGA,210543.750,4308.3765,N,07726.1109,W,1,06,1.92,156.8,M,-34.4,M,,*50
$GPRMC,210544.000,A,4308.3782,N,07726.1109,W,23.30,0.63,140823,,,A*4D
$GPGGA,210544.250,4308.3799,N,07726.1109,W,1,06,1.92,156.9,M,-34.4,M,,*50
$GPRMC,210544.500,A,4308.3816,N,07726.1109,W,23.56,0.81,140823,,,A*46
$GPGGA,210544.750,4308.3833,N,07726.1109,W,1,06,1.92,157.0,M,-34.4,M,,*52
$GPRMC,210545.000,A,4308.3850,N,07726.1108,W,23.78,0.55,140823,,,A*44
$GPGGA,210545.250,4308.3867,N,07726.1108,W,1,06,1.92,157.1,M,-34.4,M,,*57
$GPRMC,210545.500,A,4308.3884,N,07726.1108,W,23.85,0.95,140823,,,A*46
$GPGGA,210545.750,4308.3901,N,07726.1107,W,1,06,1.92,157.2,M,-34.4,M,,*5F
$GPRMC,210546.000,A,4308.3917,N,07726.1106,W,23.85,1.12,140823,,,A*4B
$GPGGA,210546.250,4308.3933,N,07726.1106,W,1,06,1.92,157.2,M,-34.4,M,,*59
$GPRMC,210546.500,A,4308.3949,N,07726.1105,W,23.60,1.72,140823,,,A*4B
$GPGGA,210546.750,4308.3965,N,07726.1103,W,1,06,1.92,157.2,M,-34.4,M,,*5A
$GPRMC,210547.000,A,4308.3981,N,07726.1102,W,23.36,2.13,140823,,,A*4B
$GPGGA,210547.250,4308.3996,N,07726.1101,W,1,06,1.92,157.2,M,-34.4,M,,*50
$GPRMC,210547.500,A,4308.4010,N,07726.1100,W,22.52,2.28,140823,,,A*41
$GPGGA,210547.750,4308.4025,N,07726.1100,W,1,06,1.92,157.2,M,-34.4,M,,*52
$GPRMC,210548.000,A,4308.4040,N,07726.1100,W,21.57,1.96,140823,,,A*4E
$GPGGA,210548.250,4308.4054,N,07726.1099,W,1,06,1.92,157.4,M,-34.4,M,,*59
$GPRMC,210548.500,A,4308.4068,N,07726.1099,W,21.26,1.66,140823,,,A*49
$GPGGA,210548.750,4308.4082,N,07726.1099,W,1,06,1.92,157.5,M,-34.4,M,,*56
$GPRMC,210549.000,A,4308.4097,N,07726.1099,W,20.96,1.29,140823,,,A*4C
$GPGGA,210549.250,4308.4109,N,07726.1098,W,1,06,1.92,157.5,M,-34.4,M,,*51
$GPRMC,210549.500,A,4308.4122,N,07726.1098,W,20.19,1.88,140823,,,A*4B
$GPGGA,210549.750,4308.4134,N,07726.1097,W,1,06,1.92,157.3,M,-34.4,M,,*53
$GPRMC,210550.000,A,4308.4147,N,07726.1096,W,19.56,2.30,140823,,,A*4A
$GPGGA,210550.250,4308.4159,N,07726.1095,W,1,06,1.92,157.2,M,-34.4,M,,*56
$GPRMC,210550.500,A,4308.4171,N,07726.1095,W,19.12,2.66,140823,,,A*4A
$GPGGA,210550.750,4308.4183,N,07726.1094,W,1,06,1.92,157.1,M,-34.4,M,,*56
$GPRMC,210551.000,A,4308.4196,N,07726.1094,W,18.66,2.61,140823,,,A*43
$GPGGA,210551.250,4308.4207,N,07726.1093,W,1,06,1.92,156.9,M,-34.4,M,,*53
$GPRMC,210551.500,A,4308.4217,N,07726.1093,W,17.65,2.62,140823,,,A*44
$GPGGA,210551.750,4308.4225,N,07726.1093,W,1,06,1.92,156.6,M,-34.4,M,,*59
$GPRMC,210552.000,A,4308.4235,N,07726.1092,W,16.27,2.20,140823,,,A*42
$GPGGA,210552.250,4308.4243,N,07726.1092,W,1,07,1.85,156.4,M,-34.4,M,,*5B
$GPRMC,210552.500,A,4308.4251,N,07726.1092,W,14.73,2.01,140823,,,A*45
$GPGGA,210552.750,4308.4258,N,07726.1092,W,1,07,1.85,156.2,M,-34.4,M,,*52
$GPRMC,210553.000,A,4308.4267,N,07726.1091,W,13.60,3.51,140823,,,A*46
$GPGGA,210553.250,4308.4274,N,07726.1091,W,1,07,1.85,156.2,M,-34.4,M,,*5B
$GPRMC,210553.500,A,4308.4280,N,07726.1090,W,12.32,4.29,140823,,,A*45
$GPGGA,210553.750,4308.4284,N,07726.1090,W,1,07,1.85,156.1,M,-34.4,M,,*53
$GPRMC,210554.000,A,4308.4290,N,07726.1090,W,10.73,3.58,140823,,,A*40
$GPGGA,210554.250,4308.4295,N,07726.1089,W,1,07,1.85,156.2,M,-34.4,M,,*5A
$GPRMC,210554.500,A,4308.4297,N,07726.1089,W,9.16,3.33,140823,,,A*7C
$GPGGA,210554.750,4308.4299,N,07726.1089,W,1,06,1.92,156.2,M,-34.4,M,,*54
$GPRMC,210555.000,A,4308.4301,N,07726.1087,W,7.44,7.63,140823,,,A*70
$GPGGA,210555.250,4308.4302,N,07726.1085,W,1,06,1.92,156.4,M,-34.4,M,,*59
$GPRMC,210555.500,A,4308.4305,N,07726.1082,W,6.73,18.63,140823,,,A*4F
$GPGGA,210555.750,4308.4309,N,07726.1079,W,1,06,1.92,156.3,M,-34.4,M,,*53
$GPRMC,210556.000,A,4308.4313,N,07726.1075,W,7.15,27.71,140823,,,A*48
$GPGGA,210556.250,4308.4316,N,07726.1071,W,1,06,1.92,156.2,M,-34.4,M,,*52
$GPRMC,210556.500,A,4308.4320,N,07726.1066,W,8.21,39.28,140823,,,A*44
$GPGGA,210556.750,4308.4322,N,07726.1059,W,1,06,1.92,156.5,M,-34.4,M,,*5D
$GPRMC,210557.000,A,4308.4326,N,07726.1048,W,10.16,55.37,140823,,,A*73
$GPGGA,210557.250,4308.4329,N,07726.1036,W,1,06,1.64,157.1,M,-34.4,M,,*57
$GPRMC,210557.500,A,4308.4331,N,07726.1025,W,11.96,64.85,140823,,,A*79
$GPGGA,210557.750,4308.4335,N,07726.1013,W,1,06,1.92,157.2,M,-34.4,M,,*52
$GPRMC,210558.000,A,4308.4337,N,07726.1000,W,13.51,68.80,140823,,,A*72
$GPGGA,210558.250,4308.4339,N,07726.0986,W,1,06,1.92,157.3,M,-34.4,M,,*51
$GPRMC,210558.500,A,4308.4340,N,07726.0970,W,15.10,74.17,140823,,,A*78
$GPGGA,210558.750,4308.4341,N,07726.0953,W,1,06,1.92,157.3,M,-34.4,M,,*53
$GPRMC,210559.000,A,4308.4344,N,07726.0935,W,17.64,77.83,140823,,,A*76
$GPGGA,210559.250,4308.4344,N,07726.0914,W,1,06,1.64,157.5,M,-34.4,M,,*5E
$GPRMC,210559.500,A,4308.4345,N,07726.0893,W,20.51,81.66,140823,,,A*7F
$GPGGA,210559.750,4308.4347,N,07726.0870,W,1,06,1.92,157.6,M,-34.4,M,,*51
$GPRMC,210600.000,A,4308.4351,N,07726.0848,W,22.83,81.84,140823,,,A*77
$GPGGA,210600.250,4308.4356,N,07726.0823,W,1,06,1.92,157.2,M,-34.4,M,,*59
$GPRMC,210600.500,A,4308.4361,N,07726.0798,W,25.47,80.99,140823,,,A*71
$GPGGA,210600.750,4308.4366,N,07726.0772,W,1,07,1.85,157.0,M,-34.4,M,,*51
$GPRMC,210601.000,A,4308.4370,N,07726.0745,W,27.70,79.34,140823,,,A*72
$GPGGA,210601.250,4308.4375,N,07726.0717,W,1,07,1.85,156.8,M,-34.4,M,,*5D
$GPRMC,210601.500,A,4308.4380,N,07726.0689,W,29.94,77.64,140823,,,A*76
$GPGGA,210601.750,4308.4385,N,07726.0659,W,1,07,1.85,156.7,M,-34.4,M,,*53
$GPRMC,210602.000,A,4308.4389,N,07726.0630,W,31.37,77.69,140823,,,A*76
$GPGGA,210602.250,4308.4393,N,07726.0599,W,1,07,1.47,156.7,M,-34.4,M,,*53
$GPRMC,210602.500,A,4308.4398,N,07726.0568,W,32.42,78.17,140823,,,A*7A
$GPGGA,210602.750,4308.4402,N,07726.0537,W,1,07,1.47,156.8,M,-34.4,M,,*52
$GPRMC,210603.000,A,4308.4407,N,07726.0506,W,32.75,77.75,140823,,,A*78
$GPGGA,210603.250,4308.4413,N,07726.0475,W,1,07,1.47,156.9,M,-34.4,M,,*50
$GPRMC,210603.500,A,4308.4418,N,07726.0444,W,32.99,77.18,140823,,,A*7D
$GPGGA,210603.750,4308.4424,N,07726.0413,W,1,07,1.85,157.0,M,-34.4,M,,*57
$GPRMC,210604.000,A,4308.4429,N,07726.0383,W,33.07,76.57,140823,,,A*7D
$GPGGA,210604.250,4308.4435,N,07726.0352,W,1,07,1.47,157.0,M,-34.4,M,,*59
$GPRMC,210604.500,A,4308.4440,N,07726.0321,W,33.08,76.04,140823,,,A*76
$GPGGA,210604.750,4308.4446,N,07726.0291,W,1,07,1.85,157.1,M,-34.4,M,,*59
$GPRMC,210605.000,A,4308.4452,N,07726.0260,W,33.10,75.41,140823,,,A*7E
$GPGGA,210605.250,4308.4458,N,07726.0229,W,1,07,1.47,157.1,M,-34.4,M,,*5F
$GPRMC,210605.500,A,4308.4465,N,07726.0198,W,33.48,74.69,140823,,,A*7D
$GPGGA,210605.750,4308.4473,N,07726.0167,W,1,07,1.85,157.2,M,-34.4,M,,*57
$GPRMC,210606.000,A,4308.4480,N,07726.0136,W,33.55,73.29,140823,,,A*7B
$GPGGA,210606.250,4308.4488,N,07726.0106,W,1,07,1.47,157.3,M,-34.4,M,,*5D
$GPRMC,210606.500,A,4308.4496,N,07726.0076,W,33.60,71.32,140823,,,A*72
$GPGGA,210606.750,4308.4504,N,07726.0046,W,1,07,1.85,157.4,M,-34.4,M,,*51
$GPRMC,210607.000,A,4308.4513,N,07726.0016,W,33.32,69.73,140823,,,A*77
$GPGGA,210607.250,4308.4523,N,07725.9986,W,1,07,1.85,157.5,M,-34.4,M,,*5E
$GPRMC,210607.500,A,4308.4536,N,07725.9956,W,33.83,65.07,140823,,,A*77
$GPGGA,210607.750,4308.4549,N,07725.9927,W,1,07,1.85,157.6,M,-34.4,M,,*5F
$GPRMC,210608.000,A,4308.4561,N,07725.9899,W,34.06,61.01,140823,,,A*75
$GPGGA,210608.250,4308.4576,N,07725.9871,W,1,06,1.92,157.8,M,-34.4,M,,*52
$GPRMC,210608.500,A,4308.4591,N,07725.9844,W,34.40,55.96,140823,,,A*74
$GPGGA,210608.750,4308.4608,N,07725.9817,W,1,06,1.92,157.9,M,-34.4,M,,*5C
$GPRMC,210609.000,A,4308.4624,N,07725.9791,W,34.58,51.88,140823,,,A*78
$GPGGA,210609.250,4308.4643,N,07725.9765,W,1,06,1.92,157.8,M,-34.4,M,,*5C
$GPRMC,210609.500,A,4308.4662,N,07725.9740,W,34.82,47.29,140823,,,A*78
$GPGGA,210609.750,4308.4681,N,07725.9715,W,1,06,1.92,157.8,M,-34.4,M,,*50
$GPRMC,210610.000,A,4308.4700,N,07725.9691,W,35.76,44.81,140823,,,A*76
$GPGGA,210610.250,4308.4720,N,07725.9666,W,1,06,1.92,157.7,M,-34.4,M,,*5D
$GPRMC,210610.500,A,4308.4740,N,07725.9641,W,37.40,43.68,140823,,,A*7D
$GPGGA,210610.750,4308.4759,N,07725.9616,W,1,06,1.92,157.6,M,-34.4,M,,*50
$GPRMC,210611.000,A,4308.4778,N,07725.9591,W,37.70,43.69,140823,,,A*7E
$GPGGA,210611.250,4308.4797,N,07725.9566,W,1,06,1.92,157.6,M,-34.4,M,,*52
$GPRMC,210611.500,A,4308.4816,N,07725.9541,W,38.14,44.81,140823,,,A*7D
$GPGGA,210611.750,4308.4835,N,07725.9514,W,1,07,1.85,157.4,M,-34.4,M,,*50
$GPRMC,210612.000,A,4308.4853,N,07725.9487,W,38.62,45.94,140823,,,A*75
$GPGGA,210612.250,4308.4872,N,07725.9461,W,1,07,1.85,157.3,M,-34.4,M,,*51
$GPRMC,210612.500,A,4308.4890,N,07725.9433,W,38.93,46.46,140823,,,A*72
$GPGGA,210612.750,4308.4909,N,07725.9406,W,1,06,1.92,157.3,M,-34.4,M,,*5F
$GPRMC,210613.000,A,4308.4928,N,07725.9378,W,39.50,46.80,140823,,,A*78
$GPGGA,210613.250,4308.4946,N,07725.9351,W,1,06,1.92,157.1,M,-34.4,M,,*57
$GPRMC,210613.500,A,4308.4965,N,07725.9324,W,39.52,46.53,140823,,,A*71
$GPGGA,210613.750,4308.4983,N,07725.9297,W,1,06,1.92,157.0,M,-34.4,M,,*51
$GPRMC,210614.000,A,4308.5001,N,07725.9269,W,39.19,46.64,140823,,,A*7A
$GPGGA,210614.250,4308.5020,N,07725.9242,W,1,07,1.85,157.0,M,-34.4,M,,*5D
$GPRMC,210614.500,A,4308.5038,N,07725.9215,W,39.04,46.33,140823,,,A*70
$GPGGA,210614.750,4308.5055,N,07725.9189,W,1,07,1.85,157.0,M,-34.4,M,,*5E
$GPRMC,210615.000,A,4308.5073,N,07725.9162,W,38.75,46.41,140823,,,A*7A
$GPGGA,210615.250,4308.5091,N,07725.9136,W,1,07,1.85,157.2,M,-34.4,M,,*54
$GPRMC,210615.500,A,4308.5109,N,07725.9110,W,38.55,46.07,140823,,,A*76
$GPGGA,210615.750,4308.5127,N,07725.9084,W,1,07,1.85,157.5,M,-34.4,M,,*52
$GPRMC,210616.000,A,4308.5145,N,07725.9058,W,37.54,45.59,140823,,,A*73
$GPGGA,210616.250,4308.5163,N,07725.9032,W,1,07,1.85,157.8,M,-34.4,M,,*54
$GPRMC,210616.500,A,4308.5181,N,07725.9007,W,37.16,45.45,140823,,,A*7F
$GPGGA,210616.750,4308.5199,N,07725.8982,W,1,07,1.85,158.1,M,-34.4,M,,*51
$GPRMC,210617.000,A,4308.5218,N,07725.8956,W,36.83,45.26,140823,,,A*7C
$GPGGA,210617.250,4308.5235,N,07725.8931,W,1,07,1.85,158.4,M,-34.4,M,,*5D
$GPRMC,210617.500,A,4308.5253,N,07725.8906,W,36.79,45.84,140823,,,A*7E
$GPGGA,210617.750,4308.5270,N,07725.8880,W,1,07,1.85,158.6,M,-34.4,M,,*50
$GPRMC,210618.000,A,4308.5287,N,07725.8855,W,36.70,47.09,140823,,,A*74
$GPGGA,210618.250,4308.5305,N,07725.8829,W,1,07,1.85,158.9,M,-34.4,M,,*55
$GPRMC,210618.500,A,4308.5322,N,07725.8803,W,36.88,47.31,140823,,,A*70
$GPGGA,210618.750,4308.5340,N,07725.8777,W,1,07,1.85,159.1,M,-34.4,M,,*5C
$GPRMC,210619.000,A,4308.5358,N,07725.8751,W,36.72,47.28,140823,,,A*7C
$GPGGA,210619.250,4308.5376,N,07725.8725,W,1,06,1.92,159.4,M,-34.4,M,,*58
$GPRMC,210619.500,A,4308.5393,N,07725.8699,W,36.63,47.21,140823,,,A*72
$GPGGA,210619.750,4308.5411,N,07725.8673,W,1,06,1.92,159.6,M,-34.4,M,,*5B
$GPRMC,210620.000,A,4308.5429,N,07725.8648,W,36.63,47.29,140823,,,A*7F
$GPGGA,210620.250,4308.5449,N,07725.8621,W,1,06,1.92,159.9,M,-34.4,M,,*51
$GPRMC,210620.500,A,4308.5467,N,07725.8595,W,37.03,47.17,140823,,,A*79
$GPGGA,210620.750,4308.5485,N,07725.8569,W,1,06,1.92,160.0,M,-34.4,M,,*58
$GPRMC,210621.000,A,4308.5503,N,07725.8543,W,36.91,46.96,140823,,,A*77
$GPGGA,210621.250,4308.5521,N,07725.8517,W,1,06,1.64,160.3,M,-34.4,M,,*50
$GPRMC,210621.500,A,4308.5539,N,07725.8491,W,36.97,46.79,140823,,,A*72
$GPGGA,210621.750,4308.5557,N,07725.8465,W,1,07,1.85,160.5,M,-34.4,M,,*58
$GPRMC,210622.000,A,4308.5574,N,07725.8440,W,37.00,47.10,140823,,,A*70
$GPGGA,210622.250,4308.5592,N,07725.8414,W,1,07,1.85,160.6,M,-34.4,M,,*52
$GPRMC,210622.500,A,4308.5610,N,07725.8388,W,36.76,47.44,140823,,,A*76
$GPGGA,210622.750,4308.5627,N,07725.8362,W,1,06,1.92,160.7,M,-34.4,M,,*5A
$GPRMC,210623.000,A,4308.5646,N,07725.8336,W,37.72,46.57,140823,,,A*72
$GPGGA,210623.250,4308.5664,N,07725.8310,W,1,06,1.64,160.7,M,-34.4,M,,*55
$GPRMC,210623.500,A,4308.5681,N,07725.8284,W,37.76,46.60,140823,,,A*74
$GPGGA,210623.750,4308.5700,N,07725.8257,W,1,06,1.92,160.8,M,-34.4,M,,*57
$GPRMC,210624.000,A,4308.5718,N,07725.8231,W,37.97,46.80,140823,,,A*78
$GPGGA,210624.250,4308.5736,N,07725.8205,W,1,06,1.92,160.9,M,-34.4,M,,*56
$GPRMC,210624.500,A,4308.5754,N,07725.8179,W,37.88,46.54,140823,,,A*7D
$GPGGA,210624.750,4308.5772,N,07725.8153,W,1,06,1.92,160.9,M,-34.4,M,,*53
$GPRMC,210625.000,A,4308.5790,N,07725.8127,W,37.93,46.40,140823,,,A*75
$GPGGA,210625.250,4308.5807,N,07725.8101,W,1,06,1.92,160.9,M,-34.4,M,,*5D
$GPRMC,210625.500,A,4308.5825,N,07725.8075,W,37.94,46.58,140823,,,A*79
$GPGGA,210625.750,4308.5843,N,07725.8049,W,1,06,1.92,160.9,M,-34.4,M,,*55
$GPRMC,210626.000,A,4308.5861,N,07725.8023,W,37.67,46.54,140823,,,A*7C
$GPGGA,210626.250,4308.5878,N,07725.7997,W,1,06,1.92,161.0,M,-34.4,M,,*56
$GPRMC,210626.500,A,4308.5896,N,07725.7971,W,37.46,46.59,140823,,,A*7E
$GPGGA,210626.750,4308.5914,N,07725.7945,W,1,06,1.92,161.0,M,-34.4,M,,*57
$GPRMC,210627.000,A,4308.5932,N,07725.7919,W,37.41,46.73,140823,,,A*74
$GPGGA,210627.250,4308.5949,N,07725.7893,W,1,06,1.64,161.0,M,-34.4,M,,*58
$GPRMC,210627.500,A,4308.5966,N,07725.7867,W,37.36,47.59,140823,,,A*71
$GPGGA,210627.750,4308.5983,N,07725.7840,W,1,06,1.92,160.9,M,-34.4,M,,*54
$GPRMC,210628.000,A,4308.6000,N,07725.7814,W,37.13,48.62,140823,,,A*75
$GPGGA,210628.250,4308.6016,N,07725.7788,W,1,06,1.92,160.8,M,-34.4,M,,*52
$GPRMC,210628.500,A,4308.6031,N,07725.7761,W,36.88,50.68,140823,,,A*7F
$GPGGA,210628.750,4308.6046,N,07725.7734,W,1,07,1.47,160.8,M,-34.4,M,,*5C
$GPRMC,210629.000,A,4308.6061,N,07725.7707,W,36.57,51.82,140823,,,A*79
$GPGGA,210629.250,4308.6076,N,07725.7681,W,1,07,1.85,160.7,M,-34.4,M,,*55
$GPRMC,210629.500,A,4308.6090,N,07725.7653,W,35.47,53.39,140823,,,A*72
$GPGGA,210629.750,4308.6104,N,07725.7626,W,1,07,1.85,160.7,M,-34.4,M,,*59
$GPRMC,210630.000,A,4308.6116,N,07725.7599,W,35.57,54.85,140823,,,A*74
$GPGGA,210630.250,4308.6124,N,07725.7572,W,1,07,1.47,160.5,M,-34.4,M,,*58
$GPRMC,210630.500,A,4308.6132,N,07725.7543,W,34.27,61.71,140823,,,A*7B
$GPGGA,210630.750,4308.6138,N,07725.7514,W,1,06,1.92,160.4,M,-34.4,M,,*58
$GPRMC,210631.000,A,4308.6147,N,07725.7484,W,33.97,66.29,140823,,,A*71
$GPGGA,210631.250,4308.6153,N,07725.7455,W,1,06,1.92,160.2,M,-34.4,M,,*53
$GPRMC,210631.500,A,4308.6160,N,07725.7425,W,33.88,69.81,140823,,,A*79
$GPGGA,210631.750,4308.6165,N,07725.7394,W,1,07,1.85,160.0,M,-34.4,M,,*5C
$GPRMC,210632.000,A,4308.6171,N,07725.7363,W,33.88,73.25,140823,,,A*7F
$GPGGA,210632.250,4308.6175,N,07725.7332,W,1,07,1.85,159.9,M,-34.4,M,,*54
$GPRMC,210632.500,A,4308.6179,N,07725.7301,W,33.81,76.42,140823,,,A*7B
$GPGGA,210632.750,4308.6182,N,07725.7270,W,1,07,1.85,159.8,M,-34.4,M,,*5F
$GPRMC,210633.000,A,4308.6185,N,07725.7238,W,33.58,78.75,140823,,,A*79
$GPGGA,210633.250,4308.6188,N,07725.7206,W,1,07,1.47,159.8,M,-34.4,M,,*5E
$GPRMC,210633.500,A,4308.6191,N,07725.7174,W,33.69,80.34,140823,,,A*72
$GPGGA,210633.750,4308.6193,N,07725.7142,W,1,07,1.85,159.8,M,-34.4,M,,*5C
$GPRMC,210634.000,A,4308.6195,N,07725.7110,W,33.62,82.52,140823,,,A*7F
$GPGGA,210634.250,4308.6195,N,07725.7078,W,1,07,1.85,159.8,M,-34.4,M,,*50
$GPRMC,210634.500,A,4308.6196,N,07725.7047,W,33.60,84.82,140823,,,A*73
$GPGGA,210634.750,4308.6196,N,07725.7015,W,1,07,1.85,159.8,M,-34.4,M,,*5D
$GPRMC,210635.000,A,4308.6196,N,07725.6983,W,33.48,86.76,140823,,,A*74
$GPGGA,210635.250,4308.6196,N,07725.6952,W,1,07,1.85,159.8,M,-34.4,M,,*52
$GPRMC,210635.500,A,4308.6195,N,07725.6920,W,33.35,88.48,140823,,,A*72
$GPGGA,210635.750,4308.6194,N,07725.6888,W,1,07,1.85,159.8,M,-34.4,M,,*53
$GPRMC,210636.000,A,4308.6194,N,07725.6857,W,33.19,89.54,140823,,,A*76
$GPGGA,210636.250,4308.6193,N,07725.6826,W,1,07,1.85,159.7,M,-34.4,M,,*59
$GPRMC,210636.500,A,4308.6192,N,07725.6796,W,32.98,89.95,140823,,,A*72
$GPGGA,210636.750,4308.6192,N,07725.6765,W,1,07,1.85,159.6,M,-34.4,M,,*54
$GPRMC,210637.000,A,4308.6192,N,07725.6735,W,31.59,89.80,140823,,,A*75
$GPGGA,210637.250,4308.6192,N,07725.6705,W,1,07,1.85,159.5,M,-34.4,M,,*55
$GPRMC,210637.500,A,4308.6192,N,07725.6675,W,31.18,89.34,140823,,,A*7F
$GPGGA,210637.750,4308.6192,N,07725.6645,W,1,07,1.85,159.4,M,-34.4,M,,*54
$GPRMC,210638.000,A,4308.6192,N,07725.6615,W,30.82,89.02,140823,,,A*74
$GPGGA,210638.250,4308.6193,N,07725.6586,W,1,07,1.85,159.4,M,-34.4,M,,*53
$GPRMC,210638.500,A,4308.6193,N,07725.6557,W,30.36,88.63,140823,,,A*7C
$GPGGA,210638.750,4308.6193,N,07725.6529,W,1,07,1.85,159.3,M,-34.4,M,,*54
$GPRMC,210639.000,A,4308.6192,N,07725.6500,W,29.98,89.15,140823,,,A*77
$GPGGA,210639.250,4308.6191,N,07725.6472,W,1,07,1.85,159.3,M,-34.4,M,,*5D
$GPRMC,210639.500,A,4308.6191,N,07725.6444,W,29.55,89.56,140823,,,A*76
$GPGGA,210639.750,4308.6191,N,07725.6416,W,1,07,1.85,159.4,M,-34.4,M,,*5D
$GPRMC,210640.000,A,4308.6191,N,07725.6389,W,29.39,89.53,140823,,,A*74
$GPGGA,210640.250,4308.6190,N,07725.6361,W,1,07,1.85,159.3,M,-34.4,M,,*57
$GPRMC,210640.500,A,4308.6189,N,07725.6335,W,29.17,90.29,140823,,,A*76
$GPGGA,210640.750,4308.6188,N,07725.6308,W,1,07,1.85,159.2,M,-34.4,M,,*55
$GPRMC,210641.000,A,4308.6187,N,07725.6282,W,28.10,90.40,140823,,,A*78
$GPGGA,210641.250,4308.6186,N,07725.6256,W,1,07,1.85,159.2,M,-34.4,M,,*55
$GPRMC,210641.500,A,4308.6186,N,07725.6230,W,27.67,90.59,140823,,,A*72
$GPGGA,210641.750,4308.6185,N,07725.6204,W,1,07,1.85,159.1,M,-34.4,M,,*57
$GPRMC,210642.000,A,4308.6185,N,07725.6178,W,27.34,90.42,140823,,,A*74
$GPGGA,210642.250,4308.6184,N,07725.6153,W,1,07,1.85,158.9,M,-34.4,M,,*58
$GPRMC,210642.500,A,4308.6183,N,07725.6127,W,27.01,90.12,140823,,,A*7E
$GPGGA,210642.750,4308.6183,N,07725.6102,W,1,07,1.85,158.8,M,-34.4,M,,*5F
$GPRMC,210643.000,A,4308.6183,N,07725.6077,W,26.61,89.53,140823,,,A*74
$GPGGA,210643.250,4308.6182,N,07725.6053,W,1,07,1.85,158.8,M,-34.4,M,,*5F
$GPRMC,210643.500,A,4308.6181,N,07725.6029,W,26.05,90.40,140823,,,A*70
$GPGGA,210643.750,4308.6180,N,07725.6005,W,1,07,1.85,158.7,M,-34.4,M,,*54
$GPRMC,210644.000,A,4308.6179,N,07725.5982,W,25.29,91.04,140823,,,A*72
$GPGGA,210644.250,4308.6178,N,07725.5959,W,1,07,1.85,158.6,M,-34.4,M,,*53
$GPRMC,210644.500,A,4308.6177,N,07725.5937,W,24.33,91.00,140823,,,A*79
$GPGGA,210644.750,4308.6176,N,07725.5915,W,1,07,1.85,158.4,M,-34.4,M,,*52
$GPRMC,210645.000,A,4308.6175,N,07725.5894,W,23.19,91.13,140823,,,A*7A
$GPGGA,210645.250,4308.6174,N,07725.5874,W,1,07,1.85,158.4,M,-34.4,M,,*52
$GPRMC,210645.500,A,4308.6175,N,07725.5855,W,21.78,89.41,140823,,,A*79
$GPGGA,210645.750,4308.6175,N,07725.5837,W,1,07,1.85,158.3,M,-34.4,M,,*56
$GPRMC,210646.000,A,4308.6173,N,07725.5823,W,19.21,89.28,140823,,,A*70
$GPGGA,210646.250,4308.6172,N,07725.5810,W,1,07,1.85,158.2,M,-34.4,M,,*53
$GPRMC,210646.500,A,4308.6170,N,07725.5798,W,16.08,90.09,140823,,,A*76
$GPGGA,210646.750,4308.6170,N,07725.5788,W,1,07,1.85,158.1,M,-34.4,M,,*59
$GPRMC,210647.000,A,4308.6170,N,07725.5776,W,13.51,88.51,140823,,,A*7F
$GPGGA,210647.250,4308.6171,N,07725.5767,W,1,07,1.85,158.0,M,-34.4,M,,*5C
$GPRMC,210647.500,A,4308.6171,N,07725.5758,W,11.03,85.04,140823,,,A*7F
$GPGGA,210647.750,4308.6170,N,07725.5754,W,1,07,1.85,158.0,M,-34.4,M,,*58
$GPRMC,210648.000,A,4308.6167,N,07725.5753,W,6.69,83.71,140823,,,A*47
$GPGGA,210648.250,4308.6166,N,07725.5751,W,1,07,1.85,157.8,M,-34.4,M,,*57
$GPRMC,210648.500,A,4308.6166,N,07725.5749,W,3.97,79.65,140823,,,A*4C
$GPGGA,210648.750,4308.6165,N,07725.5748,W,1,07,1.85,157.8,M,-34.4,M,,*59
$GPRMC,210649.000,A,4308.6164,N,07725.5747,W,2.59,74.86,140823,,,A*47
$GPGGA,210649.250,4308.6164,N,07725.5747,W,1,07,1.47,157.7,M,-34.4,M,,*52
$GPRMC,210649.500,A,4308.6162,N,07725.5747,W,1.72,74.86,140823,,,A*4E
$GPGGA,210649.750,4308.6160,N,07725.5747,W,1,07,1.47,157.5,M,-34.4,M,,*51
$GPRMC,210650.000,A,4308.6157,N,07725.5747,W,2.53,74.86,140823,,,A*45
$GPGGA,210650.250,4308.6153,N,07725.5746,W,1,07,1.47,157.2,M,-34.4,M,,*5A
$GPRMC,210650.500,A,4308.6149,N,07725.5744,W,4.23,130.43,140823,,,A*75
$GPGGA,210650.750,4308.6145,N,07725.5742,W,1,07,1.85,156.9,M,-34.4,M,,*58
$GPRMC,210651.000,A,4308.6142,N,07725.5738,W,6.14,136.02,140823,,,A*74
$GPGGA,210651.250,4308.6138,N,07725.5734,W,1,07,1.85,156.7,M,-34.4,M,,*59
$GPRMC,210651.500,A,4308.6133,N,07725.5732,W,7.35,143.68,140823,,,A*71
$GPGGA,210651.750,4308.6126,N,07725.5729,W,1,07,1.85,156.4,M,-34.4,M,,*5C
$GPRMC,210652.000,A,4308.6119,N,07725.5725,W,8.22,148.71,140823,,,A*73
$GPGGA,210652.250,4308.6112,N,07725.5722,W,1,07,1.85,156.0,M,-34.4,M,,*52
$GPRMC,210652.500,A,4308.6105,N,07725.5718,W,9.48,153.48,140823,,,A*78
$GPGGA,210652.750,4308.6098,N,07725.5714,W,1,07,1.85,155.8,M,-34.4,M,,*5A
$GPRMC,210653.000,A,4308.6091,N,07725.5709,W,10.63,154.35,140823,,,A*4C
$GPGGA,210653.250,4308.6083,N,07725.5705,W,1,07,1.85,155.6,M,-34.4,M,,*5A
$GPRMC,210653.500,A,4308.6074,N,07725.5702,W,11.69,158.52,140823,,,A*4F
$GPGGA,210653.750,4308.6065,N,07725.5700,W,1,07,1.85,155.5,M,-34.4,M,,*51
$GPRMC,210654.000,A,4308.6056,N,07725.5698,W,12.81,163.53,140823,,,A*43
$GPGGA,210654.250,4308.6045,N,07725.5697,W,1,07,1.85,155.4,M,-34.4,M,,*5F
$GPRMC,210654.500,A,4308.6035,N,07725.5696,W,13.59,168.58,140823,,,A*49
$GPGGA,210654.750,4308.6022,N,07725.5698,W,1,07,1.85,155.2,M,-34.4,M,,*52
$GPRMC,210655.000,A,4308.6009,N,07725.5699,W,14.83,176.53,140823,,,A*49
$GPGGA,210655.250,4308.5998,N,07725.5699,W,1,07,1.85,155.1,M,-34.4,M,,*5F
$GPRMC,210655.500,A,4308.5986,N,07725.5700,W,15.98,178.56,140823,,,A*40
$GPGGA,210655.750,4308.5972,N,07725.5703,W,1,07,1.85,155.2,M,-34.4,M,,*5F
$GPRMC,210656.000,A,4308.5959,N,07725.5706,W,17.25,181.26,140823,,,A*47
$GPGGA,210656.250,4308.5945,N,07725.5708,W,1,07,1.85,155.4,M,-34.4,M,,*50
$GPRMC,210656.500,A,4308.5931,N,07725.5710,W,18.54,181.82,140823,,,A*4C
$GPGGA,210656.750,4308.5917,N,07725.5712,W,1,07,1.85,155.6,M,-34.4,M,,*5B
$GPRMC,210657.000,A,4308.5902,N,07725.5714,W,19.53,181.91,140823,,,A*48
$GPGGA,210657.250,4308.5887,N,07725.5717,W,1,07,1.85,155.8,M,-34.4,M,,*5C
$GPRMC,210657.500,A,4308.5872,N,07725.5718,W,20.75,181.96,140823,,,A*4E
$GPGGA,210657.750,4308.5855,N,07725.5720,W,1,07,1.85,156.0,M,-34.4,M,,*59
$GPRMC,210658.000,A,4308.5839,N,07725.5722,W,21.82,181.34,140823,,,A*43
$GPGGA,210658.250,4308.5821,N,07725.5724,W,1,07,1.85,156.1,M,-34.4,M,,*55
$GPRMC,210658.500,A,4308.5804,N,07725.5725,W,22.84,181.77,140823,,,A*4D
$GPGGA,210658.750,4308.5786,N,07725.5727,W,1,07,1.85,156.3,M,-34.4,M,,*53
$GPRMC,210659.000,A,4308.5768,N,07725.5728,W,23.85,181.24,140823,,,A*47
$GPGGA,210659.250,4308.5750,N,07725.5728,W,1,07,1.85,156.5,M,-34.4,M,,*55
$GPRMC,210659.500,A,4308.5731,N,07725.5730,W,25.36,181.75,140823,,,A*4D
$GPGGA,210659.750,4308.5711,N,07725.5731,W,1,07,1.85,156.6,M,-34.4,M,,*5E
$GPRMC,210700.000,A,4308.5693,N,07725.5732,W,26.39,181.19,140823,,,A*48
$GPGGA,210700.250,4308.5673,N,07725.5733,W,1,07,1.85,156.8,M,-34.4,M,,*5F
$GPRMC,210700.500,A,4308.5654,N,07725.5734,W,27.15,180.73,140823,,,A*42
$GPGGA,210700.750,4308.5635,N,07725.5735,W,1,07,1.85,157.0,M,-34.4,M,,*57
$GPRMC,210701.000,A,4308.5614,N,07725.5735,W,27.88,181.02,140823,,,A*40
$GPGGA,210701.250,4308.5593,N,07725.5736,W,1,07,1.85,157.0,M,-34.4,M,,*5F
$GPRMC,210701.500,A,4308.5572,N,07725.5737,W,29.49,180.71,140823,,,A*42
$GPGGA,210701.750,4308.5551,N,07725.5737,W,1,07,1.85,156.8,M,-34.4,M,,*5C
$GPRMC,210702.000,A,4308.5530,N,07725.5738,W,29.83,180.62,140823,,,A*49
$GPGGA,210702.250,4308.5508,N,07725.5738,W,1,07,1.85,156.5,M,-34.4,M,,*54
$GPRMC,210702.500,A,4308.5484,N,07725.5740,W,31.65,180.86,140823,,,A*46
$GPGGA,210702.750,4308.5461,N,07725.5740,W,1,07,1.47,156.1,M,-34.4,M,,*5A
$GPRMC,210703.000,A,4308.5438,N,07725.5741,W,32.37,180.55,140823,,,A*4E
$GPGGA,210703.250,4308.5415,N,07725.5741,W,1,07,1.47,155.8,M,-34.4,M,,*56
$GPRMC,210703.500,A,4308.5391,N,07725.5741,W,33.20,180.13,140823,,,A*4A
$GPGGA,210703.750,4308.5366,N,07725.5742,W,1,07,1.47,155.5,M,-34.4,M,,*5E
$GPRMC,210704.000,A,4308.5342,N,07725.5742,W,33.75,180.39,140823,,,A*4D
$GPGGA,210704.250,4308.5317,N,07725.5743,W,1,07,1.47,155.1,M,-34.4,M,,*5F
$GPRMC,210704.500,A,4308.5293,N,07725.5743,W,34.01,180.62,140823,,,A*4E
$GPGGA,210704.750,4308.5267,N,07725.5744,W,1,07,1.85,154.8,M,-34.4,M,,*5D
$GPRMC,210705.000,A,4308.5241,N,07725.5745,W,34.20,180.94,140823,,,A*49
$GPGGA,210705.250,4308.5215,N,07725.5746,W,1,07,1.85,154.5,M,-34.4,M,,*53
$GPRMC,210705.500,A,4308.5189,N,07725.5747,W,34.42,181.07,140823,,,A*46
$GPGGA,210705.750,4308.5162,N,07725.5748,W,1,07,1.85,154.1,M,-34.4,M,,*5F
$GPRMC,210706.000,A,4308.5136,N,07725.5749,W,34.67,181.20,140823,,,A*48
$GPGGA,210706.250,4308.5110,N,07725.5750,W,1,07,1.85,153.8,M,-34.4,M,,*5B
$GPRMC,210706.500,A,4308.5084,N,07725.5751,W,34.94,181.32,140823,,,A*43
$GPGGA,210706.750,4308.5058,N,07725.5752,W,1,07,1.85,153.5,M,-34.4,M,,*5C
$GPRMC,210707.000,A,4308.5032,N,07725.5753,W,36.53,181.49,140823,,,A*4D
$GPGGA,210707.250,4308.5005,N,07725.5754,W,1,07,1.85,153.2,M,-34.4,M,,*51
$GPRMC,210707.500,A,4308.4979,N,07725.5755,W,36.96,181.49,140823,,,A*40
$GPGGA,210707.750,4308.4952,N,07725.5756,W,1,07,1.85,153.1,M,-34.4,M,,*5F
$GPRMC,210708.000,A,4308.4925,N,07725.5757,W,37.05,181.54,140823,,,A*46
$GPGGA,210708.250,4308.4899,N,07725.5758,W,1,07,1.85,152.7,M,-34.4,M,,*5A
$GPRMC,210708.500,A,4308.4872,N,07725.5759,W,37.14,181.42,140823,,,A*49
$GPGGA,210708.750,4308.4846,N,07725.5760,W,1,07,1.85,152.4,M,-34.4,M,,*55
$GPRMC,210709.000,A,4308.4821,N,07725.5761,W,37.21,181.17,140823,,,A*46
$GPGGA,210709.250,4308.4795,N,07725.5761,W,1,07,1.85,152.1,M,-34.4,M,,*54
$GPRMC,210709.500,A,4308.4769,N,07725.5762,W,37.59,180.48,140823,,,A*47
$GPGGA,210709.750,4308.4743,N,07725.5762,W,1,07,1.85,151.7,M,-34.4,M,,*5C
$GPRMC,210710.000,A,4308.4716,N,07725.5762,W,37.69,180.54,140823,,,A*4C
$GPGGA,210710.250,4308.4689,N,07725.5763,W,1,07,1.47,151.3,M,-34.4,M,,*5D
$GPRMC,210710.500,A,4308.4662,N,07725.5763,W,37.99,180.81,140823,,,A*4D
$GPGGA,210710.750,4308.4635,N,07725.5765,W,1,07,1.47,151.0,M,-34.4,M,,*5A
$GPRMC,210711.000,A,4308.4608,N,07725.5766,W,38.33,181.11,140823,,,A*47
$GPGGA,210711.250,4308.4581,N,07725.5767,W,1,07,1.47,150.6,M,-34.4,M,,*57
$GPRMC,210711.500,A,4308.4553,N,07725.5769,W,38.30,181.34,140823,,,A*44
$GPGGA,210711.750,4308.4526,N,07725.5769,W,1,07,1.47,150.2,M,-34.4,M,,*55
$GPRMC,210712.000,A,4308.4499,N,07725.5770,W,38.26,181.34,140823,,,A*4A
$GPGGA,210712.250,4308.4471,N,07725.5772,W,1,07,1.47,149.9,M,-34.4,M,,*59
$GPRMC,210712.500,A,4308.4444,N,07725.5772,W,38.51,181.36,140823,,,A*4F
$GPGGA,210712.750,4308.4416,N,07725.5774,W,1,07,1.85,149.5,M,-34.4,M,,*59
$GPRMC,210713.000,A,4308.4389,N,07725.5774,W,38.50,181.27,140823,,,A*4A
$GPGGA,210713.250,4308.4361,N,07725.5776,W,1,07,1.47,149.1,M,-34.4,M,,*52
$GPRMC,210713.500,A,4308.4334,N,07725.5779,W,38.28,181.71,140823,,,A*48
$GPGGA,210713.750,4308.4307,N,07725.5780,W,1,07,1.47,148.9,M,-34.4,M,,*57
$GPRMC,210714.000,A,4308.4280,N,07725.5782,W,38.75,181.67,140823,,,A*4F
$GPGGA,210714.250,4308.4252,N,07725.5782,W,1,07,1.47,148.9,M,-34.4,M,,*56
$GPRMC,210714.500,A,4308.4225,N,07725.5782,W,38.26,181.30,140823,,,A*41
$GPGGA,210714.750,4308.4198,N,07725.5783,W,1,07,1.85,149.0,M,-34.4,M,,*51
$GPRMC,210715.000,A,4308.4171,N,07725.5783,W,38.05,180.69,140823,,,A*4A
$GPGGA,210715.250,4308.4144,N,07725.5784,W,1,07,1.47,149.0,M,-34.4,M,,*5D
$GPRMC,210715.500,A,4308.4116,N,07725.5785,W,38.11,180.81,140823,,,A*4B
$GPGGA,210715.750,4308.4088,N,07725.5785,W,1,07,1.85,148.9,M,-34.4,M,,*5E
$GPRMC,210716.000,A,4308.4061,N,07725.5786,W,38.06,181.00,140823,,,A*41
$GPGGA,210716.250,4308.4033,N,07725.5787,W,1,07,1.47,149.0,M,-34.4,M,,*5C
$GPRMC,210716.500,A,4308.4005,N,07725.5788,W,38.16,181.46,140823,,,A*4B
$GPGGA,210716.750,4308.3976,N,07725.5790,W,1,07,1.85,149.0,M,-34.4,M,,*5E
$GPRMC,210717.000,A,4308.3948,N,07725.5790,W,39.24,181.79,140823,,,A*4D
$GPGGA,210717.250,4308.3921,N,07725.5791,W,1,07,1.47,149.1,M,-34.4,M,,*56
$GPRMC,210717.500,A,4308.3894,N,07725.5792,W,39.29,181.42,140823,,,A*4F
$GPGGA,210717.750,4308.3866,N,07725.5793,W,1,07,1.85,149.1,M,-34.4,M,,*5D
$GPRMC,210718.000,A,4308.3838,N,07725.5794,W,39.34,181.49,140823,,,A*42
$GPGGA,210718.250,4308.3810,N,07725.5794,W,1,07,1.47,149.2,M,-34.4,M,,*5C
$GPRMC,210718.500,A,4308.3783,N,07725.5795,W,39.32,181.28,140823,,,A*48
$GPGGA,210718.750,4308.3753,N,07725.5796,W,1,07,1.85,149.3,M,-34.4,M,,*5C
$GPRMC,210719.000,A,4308.3725,N,07725.5797,W,39.81,181.56,140823,,,A*43
$GPGGA,210719.250,4308.3696,N,07725.5798,W,1,07,1.47,149.3,M,-34.4,M,,*50
$GPRMC,210719.500,A,4308.3668,N,07725.5799,W,40.07,181.49,140823,,,A*4E
$GPGGA,210719.750,4308.3640,N,07725.5800,W,1,07,1.47,149.4,M,-34.3,M,,*50
$GPRMC,210720.000,A,4308.3611,N,07725.5801,W,40.36,181.23,140823,,,A*4F
$GPGGA,210720.250,4308.3582,N,07725.5803,W,1,07,1.47,149.5,M,-34.3,M,,*50
$GPRMC,210720.500,A,4308.3553,N,07725.5805,W,40.73,181.47,140823,,,A*48
$GPGGA,210720.750,4308.3524,N,07725.5806,W,1,07,1.85,149.4,M,-34.3,M,,*53
$GPRMC,210721.000,A,4308.3496,N,07725.5808,W,41.00,181.84,140823,,,A*43
$GPGGA,210721.250,4308.3467,N,07725.5810,W,1,07,1.47,149.4,M,-34.3,M,,*58
$GPRMC,210721.500,A,4308.3438,N,07725.5811,W,41.65,181.99,140823,,,A*45
$GPGGA,210721.750,4308.3409,N,07725.5812,W,1,07,1.85,149.3,M,-34.3,M,,*5E
$GPRMC,210722.000,A,4308.3380,N,07725.5814,W,41.18,181.84,140823,,,A*44
$GPGGA,210722.250,4308.3352,N,07725.5815,W,1,07,1.47,149.3,M,-34.3,M,,*58
$GPRMC,210722.500,A,4308.3324,N,07725.5816,W,41.32,181.77,140823,,,A*49
$GPGGA,210722.750,4308.3298,N,07725.5816,W,1,07,1.85,149.4,M,-34.3,M,,*50
$GPRMC,210723.000,A,4308.3269,N,07725.5817,W,39.81,181.29,140823,,,A*48
$GPGGA,210723.250,4308.3240,N,07725.5819,W,1,07,1.85,149.5,M,-34.3,M,,*5F
$GPRMC,210723.500,A,4308.3211,N,07725.5820,W,40.12,181.42,140823,,,A*4F
$GPGGA,210723.750,4308.3182,N,07725.5821,W,1,07,1.85,149.7,M,-34.3,M,,*5E
$GPRMC,210724.000,A,4308.3153,N,07725.5823,W,40.47,181.53,140823,,,A*4B
$GPGGA,210724.250,4308.3124,N,07725.5825,W,1,07,1.85,149.8,M,-34.3,M,,*5B
$GPRMC,210724.500,A,4308.3095,N,07725.5826,W,40.91,181.86,140823,,,A*43
$GPGGA,210724.750,4308.3065,N,07725.5828,W,1,07,1.85,150.1,M,-34.3,M,,*56
$GPRMC,210725.000,A,4308.3036,N,07725.5829,W,41.15,181.63,140823,,,A*47
$GPGGA,210725.250,4308.3008,N,07725.5830,W,1,07,1.47,150.3,M,-34.3,M,,*5C
$GPRMC,210725.500,A,4308.2980,N,07725.5830,W,40.62,180.97,140823,,,A*44
$GPGGA,210725.750,4308.2951,N,07725.5830,W,1,07,1.85,150.5,M,-34.3,M,,*55
$GPRMC,210726.000,A,4308.2923,N,07725.5831,W,40.55,180.91,140823,,,A*48
$GPGGA,210726.250,4308.2895,N,07725.5832,W,1,07,1.47,150.7,M,-34.3,M,,*54
$GPRMC,210726.500,A,4308.2866,N,07725.5832,W,40.22,181.35,140823,,,A*41
$GPGGA,210726.750,4308.2837,N,07725.5834,W,1,07,1.85,151.1,M,-34.3,M,,*56
$GPRMC,210727.000,A,4308.2808,N,07725.5836,W,40.52,181.93,140823,,,A*42
$GPGGA,210727.250,4308.2779,N,07725.5837,W,1,07,1.85,151.4,M,-34.3,M,,*51
$GPRMC,210727.500,A,4308.2750,N,07725.5839,W,40.84,182.23,140823,,,A*49
$GPGGA,210727.750,4308.2721,N,07725.5840,W,1,07,1.85,151.7,M,-34.3,M,,*5A
$GPRMC,210728.000,A,4308.2692,N,07725.5842,W,41.20,182.24,140823,,,A*48
$GPGGA,210728.250,4308.2663,N,07725.5844,W,1,07,1.47,152.0,M,-34.3,M,,*59
$GPRMC,210728.500,A,4308.2634,N,07725.5845,W,41.34,181.91,140823,,,A*4E
$GPGGA,210728.750,4308.2605,N,07725.5846,W,1,07,1.85,152.3,M,-34.3,M,,*53
$GPRMC,210729.000,A,4308.2577,N,07725.5848,W,41.51,181.96,140823,,,A*47
$GPGGA,210729.250,4308.2548,N,07725.5849,W,1,07,1.85,152.5,M,-34.3,M,,*54
$GPRMC,210729.500,A,4308.2520,N,07725.5850,W,41.58,182.11,140823,,,A*4C
$GPGGA,210729.750,4308.2492,N,07725.5852,W,1,07,1.85,152.7,M,-34.3,M,,*5F
$GPRMC,210730.000,A,4308.2463,N,07725.5853,W,41.23,181.98,140823,,,A*4A
$GPGGA,210730.250,4308.2435,N,07725.5854,W,1,07,1.85,152.9,M,-34.3,M,,*57
$GPRMC,210730.500,A,4308.2406,N,07725.5855,W,41.17,181.49,140823,,,A*41
$GPGGA,210730.750,4308.2377,N,07725.5856,W,1,07,1.85,153.0,M,-34.3,M,,*59
$GPRMC,210731.000,A,4308.2348,N,07725.5858,W,41.34,181.77,140823,,,A*49
$GPGGA,210731.250,4308.2319,N,07725.5860,W,1,07,1.85,153.0,M,-34.3,M,,*50
$GPRMC,210731.500,A,4308.2289,N,07725.5862,W,41.47,181.81,140823,,,A*44
$GPGGA,210731.750,4308.2259,N,07725.5863,W,1,07,1.85,152.9,M,-34.3,M,,*5B
$GPRMC,210732.000,A,4308.2230,N,07725.5865,W,42.28,181.73,140823,,,A*40
$GPGGA,210732.250,4308.2200,N,07725.5866,W,1,07,1.47,152.9,M,-34.3,M,,*5A
$GPRMC,210732.500,A,4308.2171,N,07725.5867,W,42.34,181.86,140823,,,A*46
$GPGGA,210732.750,4308.2141,N,07725.5869,W,1,07,1.85,153.0,M,-34.3,M,,*50
$GPRMC,210733.000,A,4308.2111,N,07725.5870,W,42.35,182.27,140823,,,A*4B
$GPGGA,210733.250,4308.2081,N,07725.5872,W,1,07,1.85,153.0,M,-34.3,M,,*53
$GPRMC,210733.500,A,4308.2052,N,07725.5873,W,42.13,182.05,140823,,,A*4F
$GPGGA,210733.750,4308.2023,N,07725.5874,W,1,07,1.85,153.1,M,-34.3,M,,*59
$GPRMC,210734.000,A,4308.1993,N,07725.5875,W,42.41,181.70,140823,,,A*4A
$GPGGA,210734.250,4308.1963,N,07725.5876,W,1,07,1.47,153.1,M,-34.3,M,,*59
$GPRMC,210734.500,A,4308.1932,N,07725.5877,W,42.54,181.44,140823,,,A*45
$GPGGA,210734.750,4308.1902,N,07725.5879,W,1,07,1.85,153.1,M,-34.3,M,,*5A
$GPRMC,210735.000,A,4308.1871,N,07725.5881,W,42.97,181.53,140823,,,A*47
$GPGGA,210735.250,4308.1841,N,07725.5884,W,1,07,1.85,153.3,M,-34.3,M,,*58
$GPRMC,210735.500,A,4308.1811,N,07725.5887,W,43.03,181.75,140823,,,A*4A
$GPGGA,210735.750,4308.1782,N,07725.5889,W,1,07,1.85,153.5,M,-34.3,M,,*56
$GPRMC,210736.000,A,4308.1752,N,07725.5891,W,42.99,181.62,140823,,,A*47
$GPGGA,210736.250,4308.1722,N,07725.5893,W,1,07,1.85,153.5,M,-34.3,M,,*51
$GPRMC,210736.500,A,4308.1693,N,07725.5895,W,42.87,181.69,140823,,,A*4E
$GPGGA,210736.750,4308.1664,N,07725.5897,W,1,07,1.85,153.5,M,-34.3,M,,*53
$GPRMC,210737.000,A,4308.1635,N,07725.5899,W,42.06,181.95,140823,,,A*40
$GPGGA,210737.250,4308.1606,N,07725.5901,W,1,07,1.47,153.5,M,-34.3,M,,*53
$GPRMC,210737.500,A,4308.1577,N,07725.5903,W,41.36,182.10,140823,,,A*4C
$GPGGA,210737.750,4308.1550,N,07725.5905,W,1,07,1.85,153.3,M,-34.3,M,,*5A
$GPRMC,210738.000,A,4308.1521,N,07725.5906,W,41.38,181.62,140823,,,A*48
$GPGGA,210738.250,4308.1494,N,07725.5907,W,1,07,1.85,153.2,M,-34.3,M,,*5A
$GPRMC,210738.500,A,4308.1465,N,07725.5909,W,41.08,181.29,140823,,,A*4F
$GPGGA,210738.750,4308.1437,N,07725.5910,W,1,07,1.85,153.3,M,-34.3,M,,*51
$GPRMC,210739.000,A,4308.1409,N,07725.5911,W,40.55,181.22,140823,,,A*4A
$GPGGA,210739.250,4308.1382,N,07725.5912,W,1,07,1.47,153.0,M,-34.3,M,,*53
$GPRMC,210739.500,A,4308.1355,N,07725.5913,W,40.43,181.31,140823,,,A*46
$GPGGA,210739.750,4308.1328,N,07725.5914,W,1,07,1.85,152.7,M,-34.3,M,,*58
$GPRMC,210740.000,A,4308.1301,N,07725.5915,W,40.34,181.41,140823,,,A*4D
$GPGGA,210740.250,4308.1274,N,07725.5915,W,1,07,1.85,152.4,M,-34.3,M,,*59
$GPRMC,210740.500,A,4308.1246,N,07725.5916,W,39.77,181.77,140823,,,A*45
$GPGGA,210740.750,4308.1219,N,07725.5917,W,1,07,1.85,152.3,M,-34.3,M,,*52
$GPRMC,210741.000,A,4308.1192,N,07725.5918,W,39.71,181.91,140823,,,A*4B
$GPGGA,210741.250,4308.1164,N,07725.5919,W,1,07,1.85,152.1,M,-34.3,M,,*53
$GPRMC,210741.500,A,4308.1137,N,07725.5921,W,39.58,181.68,140823,,,A*46
$GPGGA,210741.750,4308.1109,N,07725.5922,W,1,07,1.85,152.1,M,-34.3,M,,*55
$GPRMC,210742.000,A,4308.1081,N,07725.5923,W,39.44,181.80,140823,,,A*45
$GPGGA,210742.250,4308.1054,N,07725.5924,W,1,07,1.47,152.0,M,-34.3,M,,*53
$GPRMC,210742.500,A,4308.1026,N,07725.5925,W,39.41,181.99,140823,,,A*46
$GPGGA,210742.750,4308.0999,N,07725.5927,W,1,07,1.85,152.0,M,-34.3,M,,*52
$GPRMC,210743.000,A,4308.0972,N,07725.5929,W,39.37,182.32,140823,,,A*44
$GPGGA,210743.250,4308.0944,N,07725.5930,W,1,07,1.85,151.9,M,-34.3,M,,*5A
$GPRMC,210743.500,A,4308.0918,N,07725.5932,W,39.18,182.46,140823,,,A*49
$GPGGA,210743.750,4308.0891,N,07725.5933,W,1,07,1.85,151.7,M,-34.3,M,,*5B
$GPRMC,210744.000,A,4308.0864,N,07725.5935,W,38.27,182.66,140823,,,A*49
$GPGGA,210744.250,4308.0837,N,07725.5937,W,1,07,1.85,151.6,M,-34.3,M,,*50
$GPRMC,210744.500,A,4308.0810,N,07725.5939,W,38.16,182.81,140823,,,A*48
$GPGGA,210744.750,4308.0783,N,07725.5941,W,1,07,1.85,151.4,M,-34.3,M,,*56
$GPRMC,210745.000,A,4308.0756,N,07725.5943,W,38.12,182.72,140823,,,A*44
$GPGGA,210745.250,4308.0730,N,07725.5943,W,1,07,1.85,151.3,M,-34.3,M,,*5F
$GPRMC,210745.500,A,4308.0704,N,07725.5944,W,38.13,181.83,140823,,,A*4D
$GPGGA,210745.750,4308.0677,N,07725.5945,W,1,07,1.85,151.3,M,-34.3,M,,*5E
$GPRMC,210746.000,A,4308.0651,N,07725.5945,W,38.09,181.67,140823,,,A*4A
$GPGGA,210746.250,4308.0625,N,07725.5946,W,1,07,1.85,151.2,M,-34.3,M,,*5D
$GPRMC,210746.500,A,4308.0598,N,07725.5947,W,37.91,181.59,140823,,,A*48
$GPGGA,210746.750,4308.0571,N,07725.5947,W,1,07,1.85,151.2,M,-34.3,M,,*5B
$GPRMC,210747.000,A,4308.0545,N,07725.5948,W,38.18,181.53,140823,,,A*47
$GPGGA,210747.250,4308.0518,N,07725.5949,W,1,07,1.48,151.1,M,-34.3,M,,*5C
$GPRMC,210747.500,A,4308.0492,N,07725.5950,W,38.11,181.74,140823,,,A*4C
$GPGGA,210747.750,4308.0465,N,07725.5951,W,1,07,1.85,151.1,M,-34.3,M,,*5A
$GPRMC,210748.000,A,4308.0439,N,07725.5951,W,37.90,181.49,140823,,,A*4E
$GPGGA,210748.250,4308.0414,N,07725.5952,W,1,07,1.85,151.1,M,-34.3,M,,*55
$GPRMC,210748.500,A,4308.0388,N,07725.5952,W,37.68,181.59,140823,,,A*43
$GPGGA,210748.750,4308.0362,N,07725.5953,W,1,07,1.85,151.1,M,-34.3,M,,*57
$GPRMC,210749.000,A,4308.0336,N,07725.5954,W,37.39,181.52,140823,,,A*4B
$GPGGA,210749.250,4308.0311,N,07725.5953,W,1,07,1.85,151.2,M,-34.3,M,,*54
$GPRMC,210749.500,A,4308.0286,N,07725.5954,W,37.24,181.03,140823,,,A*4C
$GPGGA,210749.750,4308.0262,N,07725.5954,W,1,07,1.85,151.3,M,-34.3,M,,*52
$GPRMC,210750.000,A,4308.0237,N,07725.5954,W,36.49,180.68,140823,,,A*4D
$GPGGA,210750.250,4308.0211,N,07725.5955,W,1,07,1.48,151.4,M,-34.3,M,,*5C
$GPRMC,210750.500,A,4308.0186,N,07725.5956,W,36.49,181.17,140823,,,A*4A
$GPGGA,210750.750,4308.0161,N,07725.5956,W,1,07,1.85,151.4,M,-34.3,M,,*5F
$GPRMC,210751.000,A,4308.0136,N,07725.5957,W,36.49,180.90,140823,,,A*4A
$GPGGA,210751.250,4308.0111,N,07725.5957,W,1,07,1.85,151.4,M,-34.3,M,,*5D
$GPRMC,210751.500,A,4308.0085,N,07725.5958,W,36.53,180.79,140823,,,A*45
$GPGGA,210751.750,4308.0060,N,07725.5959,W,1,07,1.85,151.5,M,-34.3,M,,*50
$GPRMC,210752.000,A,4308.0034,N,07725.5960,W,36.88,181.26,140823,,,A*4F
$GPGGA,210752.250,4308.0008,N,07725.5961,W,1,07,1.85,151.7,M,-34.3,M,,*51
$GPRMC,210752.500,A,4307.9981,N,07725.5962,W,36.86,181.28,140823,,,A*49
$GPGGA,210752.750,4307.9955,N,07725.5962,W,1,07,1.85,151.9,M,-34.3,M,,*5E
$GPRMC,210753.000,A,4307.9929,N,07725.5963,W,37.08,181.49,140823,,,A*4E
$GPGGA,210753.250,4307.9904,N,07725.5964,W,1,07,1.85,152.1,M,-34.3,M,,*53
$GPRMC,210753.500,A,4307.9878,N,07725.5965,W,37.35,181.88,140823,,,A*4B
$GPGGA,210753.750,4307.9852,N,07725.5966,W,1,07,1.85,152.4,M,-34.3,M,,*53
$GPRMC,210754.000,A,4307.9827,N,07725.5968,W,37.41,182.18,140823,,,A*47
$GPGGA,210754.250,4307.9801,N,07725.5969,W,1,07,1.85,152.6,M,-34.3,M,,*5A
$GPRMC,210754.500,A,4307.9775,N,07725.5970,W,37.34,181.93,140823,,,A*41
$GPGGA,210754.750,4307.9750,N,07725.5970,W,1,07,1.85,152.9,M,-34.3,M,,*53
$GPRMC,210755.000,A,4307.9725,N,07725.5971,W,37.13,181.54,140823,,,A*4F
$GPGGA,210755.250,4307.9699,N,07725.5973,W,1,07,1.85,153.4,M,-34.3,M,,*5C
$GPRMC,210755.500,A,4307.9674,N,07725.5974,W,37.20,181.86,140823,,,A*45
$GPGGA,210755.750,4307.9648,N,07725.5976,W,1,07,1.85,153.9,M,-34.3,M,,*5D
$GPRMC,210756.000,A,4307.9622,N,07725.5979,W,37.44,182.38,140823,,,A*49
$GPGGA,210756.250,4307.9596,N,07725.5981,W,1,07,1.85,154.3,M,-34.3,M,,*5E
$GPRMC,210756.500,A,4307.9570,N,07725.5982,W,37.55,182.36,140823,,,A*42
$GPGGA,210756.750,4307.9544,N,07725.5984,W,1,07,1.85,154.5,M,-34.3,M,,*57
$GPRMC,210757.000,A,4307.9518,N,07725.5986,W,37.59,182.39,140823,,,A*4F
$GPGGA,210757.250,4307.9491,N,07725.5988,W,1,07,1.85,154.9,M,-34.3,M,,*5A
$GPRMC,210757.500,A,4307.9465,N,07725.5989,W,37.81,182.16,140823,,,A*46
$GPGGA,210757.750,4307.9438,N,07725.5991,W,1,07,1.85,155.4,M,-34.3,M,,*58
$GPRMC,210758.000,A,4307.9411,N,07725.5993,W,37.96,182.02,140823,,,A*47
$GPGGA,210758.250,4307.9385,N,07725.5995,W,1,07,1.85,155.9,M,-34.3,M,,*5A
$GPRMC,210758.500,A,4307.9360,N,07725.5996,W,37.50,181.79,140823,,,A*43
$GPGGA,210758.750,4307.9334,N,07725.5997,W,1,07,1.85,156.1,M,-34.3,M,,*5C
$GPRMC,210759.000,A,4307.9308,N,07725.5998,W,37.48,181.61,140823,,,A*47
$GPGGA,210759.250,4307.9282,N,07725.5999,W,1,07,1.85,156.3,M,-34.3,M,,*58
$GPRMC,210759.500,A,4307.9257,N,07725.6000,W,37.22,181.45,140823,,,A*48
$GPGGA,210759.750,4307.9231,N,07725.6001,W,1,07,1.85,156.4,M,-34.3,M,,*59
$GPRMC,210800.000,A,4307.9206,N,07725.6002,W,37.09,181.33,140823,,,A*40
$GPGGA,210800.250,4307.9182,N,07725.6002,W,1,07,1.85,156.5,M,-34.3,M,,*56
